name,count,id,lat,lng
2112 W Peterson Ave,581,KA1504000155,41.991178,-87.683593
21st St & Pulaski Rd,31,21331,41.8534195,-87.72449583333334
63rd St Beach,1018,15491,41.78091096424803,-87.57632374763489
900 W Harrison St,11302,13028,41.874754,-87.649807
Aberdeen St & Jackson Blvd,13598,13157,41.87772613,-87.65478743
Aberdeen St & Monroe St,9127,13156,41.880419,-87.655519
Aberdeen St & Randolph St,9590,18062,41.884114,-87.654264
Ada St & 113th St,15,20129,41.687561623357375,-87.65547573566435
Ada St & Washington Blvd,6046,13353,41.88283,-87.661206
Adler Planetarium,15502,13431,41.866095,-87.607267
Albany Ave & 16th St,110,422,41.859222889,-87.702992201
Albany Ave & 26th St,146,15691,41.844507,-87.701655
Albany Ave & Belmont Ave,689,434,41.939637661,-87.705193758
Albany Ave & Bloomingdale Ave,4812,15655,41.91402671273,-87.705126462
Albany Ave & Douglas Blvd,74,421,41.863197565,-87.702958584
Albany Ave & Montrose Ave,1814,15621,41.961041,-87.705866
Altgeld Gardens,18,20212,41.65666552967373,-87.59880065917969
Archer (Damen) Ave & 37th St,549,18022,41.826712,-87.683144
Archer Ave & 43rd St,62,341,41.815471649,-87.702363849
Archer Ave & Homan Ave,7,24246,41.81153,-87.70885
Artesian Ave & 55th St,69,345,41.793961,-87.68582966666666
Artesian Ave & 71st St,35,23141,41.764345,-87.684417
Artesian Ave & Hubbard St,4917,15664,41.8895,-87.688257
Artesian Ave & Marquette Rd,81,23142,41.77203,-87.684637
Ashland Ave & 13th St,2711,13354,41.865234,-87.666507
Ashland Ave & 50th St,283,16940,41.803023,-87.664699
Ashland Ave & 63rd St,73,16948,41.779397488,-87.664870024
Ashland Ave & 66th St,71,16950,41.774077773,-87.663738728
Ashland Ave & 74th St,51,20245,41.75923602425868,-87.66347408294678
Ashland Ave & 78th St,71,20234,41.75220484941116,-87.66369938850403
Ashland Ave & Archer Ave,1381,15442,41.83920868403,-87.6656098589
Ashland Ave & Augusta Blvd,6513,13248,41.899643,-87.6677
Ashland Ave & Belle Plaine Ave,2762,13249,41.956057,-87.668835
Ashland Ave & Blackhawk St,7174,13224,41.907066,-87.667252
Ashland Ave & Chicago Ave,5576,13247,41.89595435734305,-87.6677280664444
Ashland Ave & Division St,19009,13061,41.90345,-87.667747
Ashland Ave & Garfield Blvd,62,16943,41.792822,-87.664429
Ashland Ave & Grace St,7004,13319,41.950687,-87.6687
Ashland Ave & Grand Ave,4636,13434,41.891053677,-87.666723847
Ashland Ave & Lake St,5578,13073,41.88592,-87.66717
Ashland Ave & McDowell Ave,150,16937,41.80887,-87.66454
Ashland Ave & Pershing Rd,195,16932,41.823406577,-87.665566564
Ashland Ave & Wellington Ave,6608,13269,41.936083,-87.669807
Ashland Ave & Wrightwood Ave,5070,13296,41.92883,-87.668507
Augusta Blvd & Laramie Ave,55,373,41.898684978,-87.755507827
Austin Blvd & Chicago Ave,133,16921,41.894887,-87.774704
Austin Blvd & Lake St,333,16906,41.88794379427211,-87.77427345514297
Austin Blvd & Madison St,164,16918,41.880281,-87.774453
Avenue L & 114th St,22,20220,41.68798783333333,-87.53655816666667
Avenue O & 118th St,59,20218,41.68100145911039,-87.5379312226869
Avenue O & 134th St,50,20214,41.651799,-87.540696
Avers Ave & Belmont Ave,2085,15640,41.939408,-87.723574
Avondale Ave & Irving Park Rd,2303,15624,41.953393,-87.732002
Baltimore Ave & 87th St,204,20229,41.737397075,-87.548587322
Bennett Ave & 79th St,37,16970,41.751785,-87.578496
Benson Ave & Church St,5382,596,42.048214,-87.683485
Bernard St & Elston Ave,1452,18016,41.949923,-87.713949
Bernard St & Peterson Ave,55,24158,41.9904393,-87.715236
Big Marsh Park,214,20232,41.68587705562333,-87.57382392883301
Bissell St & Armitage Ave*,10175,chargingstx1,41.9182955629354,-87.65218332409859
Blackstone Ave & 59th St,8523,22004,41.787877,-87.590461
Blackstone Ave & Hyde Park Blvd,4731,13398,41.802562,-87.590368
Bloomingdale Ave & Harlem Ave,66,377,41.9119935,-87.80576066666667
Blue Island Ave & 18th St,4657,13135,41.857556,-87.661535
Bosworth Ave & Howard St,844,16806,42.019537,-87.669563
Bradley Park,15,20227,41.717878301935,-87.56459176540375
Broadway & Argyle St,7747,13108,41.973815,-87.65966
Broadway & Barry Ave,23737,13137,41.93758231600629,-87.6440978050232
Broadway & Belmont Ave,13807,13277,41.940106,-87.645451
Broadway & Berwyn Ave,6786,13109,41.978116,-87.660134
Broadway & Cornelia Ave,18163,13278,41.945529,-87.646439
Broadway & Granville Ave,6130,15571,41.9947796884,-87.6602845349
Broadway & Ridge Ave,5362,15578,41.9840446107,-87.6602738295
Broadway & Sheridan Rd,13751,13323,41.952833,-87.649993
Broadway & Thorndale Ave,6098,15575,41.98974251144,-87.6601406209
Broadway & Waveland Ave,18830,13325,41.949074,-87.648636
Broadway & Wilson Ave,10683,13074,41.965221,-87.658139
Buckingham - Fountain,206,15541.1.1,41.876665,-87.620483
Buckingham Fountain,5257,15541.1.1,41.876665,-87.620483
Buckingham Fountain (Columbus/Balbo),143,15541,41.870748,-87.623997
Buckingham Fountain (Temp),3681,15541,41.876423,-87.620339
Budlong Woods Library,760,15585,41.98366470886,-87.6964225611
Burling St & Diversey Pkwy,11472,TA1309000036,41.93314,-87.64776
Burnham Greenway & 105th St,94,20222,41.7045750872071,-87.52823173999786
Burnham Greenway & 112th St,325,20219,41.69177385116831,-87.53043115139008
Burnham Harbor,8541,15545,41.85741178707404,-87.61379152536392
California & 16th St,246,426,41.859259844,-87.695384502
California Ave & 21st St,654,13096,41.853795793473395,-87.69582286477088
California Ave & 23rd Pl,568,15689,41.84910969176,-87.6951398068
California Ave & 26th St,245,15692,41.8436799145765,-87.69496858119965
California Ave & 29th St,36,466,41.840204954,-87.694084525
California Ave & 36th St,102,338,41.82820383333333,-87.69455233333333
California Ave & 41st St,10,24244,41.818558455,-87.694408774
California Ave & 71st St,71,23140,41.764748,-87.693121
California Ave & Altgeld St,3603,15646,41.92669,-87.697668
California Ave & Byron St,2336,15628,41.95216219326,-87.698051113
California Ave & Cortez St,4951,17660,41.900363,-87.696704
California Ave & Division St,3459,13256,41.903029,-87.697474
California Ave & Fletcher St,2412,15642,41.93842879148,-87.698007756
California Ave & Francis Pl,4583,13259,41.91849115368695,-87.69742280244827
California Ave & Granville Ave,363,23104,41.994059801,-87.699272275
California Ave & Lake St,945,15666,41.88445395657,-87.6962981368
California Ave & Marquette Rd,109,390,41.771570833333335,-87.69333183333333
California Ave & Milwaukee Ave,10730,13084,41.922695,-87.697153
California Ave & Montrose Ave,2906,15622,41.961068,-87.695439
California Ave & North Ave,3626,13258,41.910475,-87.696894
California Ave & Touhy Ave,74,24151,42.01202,-87.699884
California Ave & Winona St,719,443,41.974703312,-87.697831988
Calumet Ave & 18th St,7275,13102,41.85761755293753,-87.61941075325012
Calumet Ave & 21st St,3847,15546,41.85418424947,-87.6191537415
Calumet Ave & 33rd St,12188,13217,41.8349,-87.61793
Calumet Ave & 35th St,3333,13345,41.831379,-87.618034
Calumet Ave & 51st St,835,15470,41.80229465088,-87.6180535802
Calumet Ave & 71st St,212,15599,41.76550800581,-87.616917925
Calumet Park,170,20224,41.71371,-87.530844
Campbell Ave & 51st St,112,21383,41.80094,-87.68676
Campbell Ave & Augusta Blvd,2602,410,41.89940983333334,-87.689364
Campbell Ave & Fullerton Ave,2756,15648,41.92463247165,-87.6893070063
Campbell Ave & Irving Park Rd,546,439,41.95354283333333,-87.69073616666667
Campbell Ave & Montrose Ave,2805,15623,41.961524,-87.691177
Campbell Ave & North Ave,5563,13257,41.910535,-87.689556
Canal St & Adams St,19861,13011,41.879255,-87.639904
Canal St & Harrison St,2887,13326,41.874255,-87.639573
Canal St & Jackson Blvd,11287,13138,41.878802,-87.639621
Canal St & Madison St,17494,13341,41.882409,-87.639767
Canal St & Monroe St,13591,13056,41.88169,-87.63953
Canal St & Taylor St,5570,15550,41.870257,-87.639474
Cannon Dr & Fullerton Ave,5138,13124,41.9267559875,-87.6344287848
Carpenter St & 63rd St,15,18025,41.77990366666667,-87.65094983333333
Carpenter St & Huron St,9339,13196,41.894556,-87.653449
Central Ave & Altgeld St,36,23182,41.9258119,-87.7663685
Central Ave & Chicago Ave,287,16920,41.894958,-87.764902
Central Ave & Harrison St,80,16915,41.872993,-87.764499
Central Ave & Lake St,132,16905,41.887730241,-87.765447617
Central Ave & Madison St,88,16916,41.880121,-87.763238
Central Ave & Parker Ave,165,355,41.930155158,-87.766102672
Central Ave & Roscoe St,120,21396,41.942275,-87.76695
Central Ave & Wellington Ave,42,23173,41.934903383,-87.766847849
Central Park & Augusta Blvd,171,370,41.89883183333333,-87.716398
Central Park Ave & 24th St,184,15687,41.8481,-87.715068
Central Park Ave & 66th St,6,24144,41.773258,-87.713143
Central Park Ave & Ardmore Ave,42,24157,41.986642,-87.718656
Central Park Ave & Bloomingdale Ave,2038,18017,41.914166,-87.716755
Central Park Ave & Douglas Blvd,50,329.0,41.86235116666667,-87.71589416666667
Central Park Ave & Elbridge Ave,2416,15644,41.93533728263,-87.7168892935
Central Park Ave & North Ave,941,15652,41.90965687563,-87.7166319516
Central Park Ave & Ogden Ave,641,15685,41.854064,-87.715117
Central Park Ave & Ohio St,105,369,41.891913295,-87.71644938
Central Park Ave & Washington Blvd,25,23210,41.881497,-87.715904
Central Park Blvd & 5th Ave,115,16907,41.875680447,-87.715513468
Central St & Girard Ave,880,E007,42.064313,-87.686152
Central St Metra,1048,E006,42.063598,-87.69873
Cherry Ave & Blackhawk St,1898,18069,41.907221,-87.655618
Chicago Ave & Sheridan Rd,4783,E008,42.050491,-87.677821
Chicago Ave & Washington St,2339,E002,42.032562,-87.679101
Chicago State University,314,20106,41.71896342165455,-87.60829567909241
Christiana Ave & Lawrence Ave,1559,15615,41.96835449363,-87.7118306675
Cicero Ave & Flournoy St,95,16912,41.872131,-87.746619
Cicero Ave & Grace St,254,322,41.949787259,-87.746974587
Cicero Ave & Lake St,146,16903,41.88688159,-87.745326519
Cicero Ave & Quincy St,73,16913,41.877713442,-87.745347857
Cicero Ave & Roscoe Ave,74,23165,41.942427,-87.747315
Cicero Ave & Wellington Ave,1,24174,41.93515,-87.74636
Cicero Ave & Wrightwood Ave,63,23180,41.927896261,-87.746932507
Cityfront Plaza Dr & Pioneer Ct,11657,13427,41.890573,-87.622072
Claremont Ave & Hirsch St,3089,13245,41.907781,-87.685854
Clarendon Ave & Gordon Ter,13114,13379,41.95786652415174,-87.64950513839722
Clarendon Ave & Junior Ter,10042,13389,41.961004,-87.649603
Clarendon Ave & Leland Ave,5457,TA1307000119,41.967968,-87.650001
Clark St & 9th St (AMLI),5496,SL-009,41.870816,-87.631246
Clark St & Armitage Ave,21730,13146,41.918306,-87.636282
Clark St & Berwyn Ave,10270,KA1504000146,41.97803062248656,-87.66856491565704
Clark St & Bryn Mawr Ave,7534,KA1504000151,41.983593,-87.669154
Clark St & Chicago Ave,10089,13303,41.89675,-87.63089
Clark St & Columbia Ave,2253,RP-008,42.00445062934,-87.6724024047
Clark St & Drummond Pl,17583,TA1307000142,41.931248,-87.644336
Clark St & Elm St,31184,TA1307000039,41.902973,-87.63128
Clark St & Elmdale Ave,3090,KA1504000148,41.990860448125574,-87.66972362995148
Clark St & Grace St,11365,TA1307000127,41.95078,-87.659172
Clark St & Ida B Wells Dr,7329,TA1305000009,41.8759326655,-87.6305845355
Clark St & Jarvis Ave,1251,517,42.015963,-87.675005
Clark St & Lake St,15166,KA1503000012,41.88602082773,-87.6308760584
Clark St & Leland Ave,9091,TA1309000014,41.96708783918421,-87.66729086637497
Clark St & Lincoln Ave,21281,13179,41.915689,-87.6346
Clark St & Lunt Ave,4083,KA1504000162,42.00901118058077,-87.67411172389984
Clark St & Montrose Ave,6905,KA1503000022,41.961588,-87.666036
Clark St & Newport St,18049,632,41.94454,-87.654678
Clark St & North Ave,10309,13128,41.911974,-87.631942
Clark St & Randolph St,7957,TA1305000030,41.884576,-87.63189
Clark St & Schiller St,15930,TA1309000024,41.907993,-87.631501
Clark St & Schreiber Ave,2894,KA1504000156,41.999897,-87.670073
Clark St & Touhy Ave,1195,RP-007,42.01256011541,-87.6743671152
Clark St & Wellington Ave,13651,TA1307000136,41.9364968219,-87.6475386582
Clark St & Winnemac Ave,13509,TA1309000035,41.97334764047304,-87.6678554713726
Clark St & Wrightwood Ave,19160,TA1305000014,41.929546,-87.643118
Clifton Ave & Armitage Ave,9224,TA1307000163,41.918216,-87.656936
Clinton St & 18th St,2728,TA1307000044,41.85795,-87.640826
Clinton St & Jackson Blvd,20774,638,41.87831661183069,-87.64098107814789
Clinton St & Lake St,16234,13021,41.885637,-87.641823
Clinton St & Madison St,25728,TA1305000032,41.882751965685614,-87.64119029045105
Clinton St & Polk St,997,15542,41.871467,-87.640949
Clinton St & Roosevelt Rd,6073,WL-008,41.8671177825,-87.6410879593
Clinton St & Tilden St,5269,13037,41.875885,-87.640795
Clinton St & Washington Blvd,30652,WL-012,41.88338,-87.64117
Clybourn Ave & Division St,5673,TA1307000115,41.904613,-87.640552
Clyde Ave & 87th St,97,20230,41.73715146431056,-87.57274031639099
Columbus Ave & 79th St,23,23128,41.749177933,-87.70424521
Columbus Ave & 83rd Pl,14,23116,41.741346,-87.713696
Columbus Dr & Randolph St,17580,13263,41.884728,-87.619521
Commercial Ave & 100th St,29,20225,41.71331739547703,-87.55109757184982
Commercial Ave & 130th St,147,20213,41.65915,-87.550762
Commercial Ave & 83rd St,230,TA1309000051,41.744615,-87.551208
Conservatory Dr & Lake St,468,518,41.885463834,-87.716871858
Constance Ave & 95th St,71,20228,41.72229074095262,-87.57896840572357
Cornell Ave & Hyde Park Blvd,6881,KA1503000007,41.802406,-87.586924
Cottage Grove Ave & 111th Pl,67,20131,41.69170975847015,-87.61000156402588
Cottage Grove Ave & 43rd St,852,TA1308000023,41.816499,-87.606582
Cottage Grove Ave & 47th St,1181,TA1309000053,41.809855,-87.606755
Cottage Grove Ave & 51st St,1220,TA1309000067,41.803046703,-87.606616616
Cottage Grove Ave & 63rd St,1240,KA1503000054,41.78053094070882,-87.6059702038765
Cottage Grove Ave & 67th St,429,KA1503000031,41.77372095205,-87.60563486
Cottage Grove Ave & 71st St,77,KA1503000003,41.76571903697,-87.604959713
Cottage Grove Ave & 78th St,66,575,41.753193736,-87.604746342
Cottage Grove Ave & 83rd St,217,585,41.743441,-87.604836
Cottage Grove Ave & Oakwood Blvd,904,TA1308000038,41.822985,-87.6071
Daley Center Plaza,17195,TA1306000010,41.884241,-87.629634
Damen Ave & 33rd St,72,471,41.834185833333336,-87.67515066666667
Damen Ave & 51st St,71,554,41.800908,-87.674684
Damen Ave & 59th St,82,561,41.785861,-87.674144
Damen Ave & 74th St,47,16951,41.759274,-87.673634
Damen Ave & 81st St,36,23120,41.746431708,-87.673109651
Damen Ave & 87th St,47,23121,41.736044,-87.672861
Damen Ave & Charleston St,5559,13288,41.920082,-87.677855
Damen Ave & Chicago Ave,8624,13132,41.895769,-87.67722
Damen Ave & Clybourn Ave,4195,13271,41.931931,-87.677856
Damen Ave & Cortland St,9514,13133,41.915983,-87.677335
Damen Ave & Coulter St,300,TA1307000066,41.8492,-87.67564
Damen Ave & Cullerton St,2063,13089,41.854966518753926,-87.67569959163664
Damen Ave & Division St,7502,13136,41.903266,-87.678435
Damen Ave & Foster Ave,4496,KA1504000149,41.97561480459,-87.6794590387
Damen Ave & Grand Ave,4767,TA1308000006,41.892394452962705,-87.67688512802124
Damen Ave & Leland Ave,6228,TA1307000158,41.966946,-87.678893
Damen Ave & Madison St,3113,13134,41.88137,-87.67493
Damen Ave & Melrose Ave,3544,13143,41.9406,-87.6785
Damen Ave & Pershing Rd,213,546,41.823192,-87.676597
Damen Ave & Pierce Ave,16705,TA1305000041,41.9093960065,-87.6776919292
Damen Ave & Sunnyside Ave,3238,TA1309000012,41.96325,-87.679258
Damen Ave & Thomas St (Augusta Blvd),7216,TA1307000070,41.901315,-87.677409
Damen Ave & Wabansia Ave,3394,20.0,41.9124403,-87.677280307
Damen Ave & Walnut (Lake) St,2280,KA17018054,41.885951,-87.677009
Damen Ave & Wellington Ave,4491,13268,41.93588,-87.67842
Damen Ave/Coulter St,316,PI00001,41.8492,-87.67564
Dan Ryan Woods & 83rd St,52,23123,41.742805,-87.680177
Dauphin Ave & 103rd St,88,20113,41.7072503677818,-87.60766267776489
Dauphin Ave & 87th St,96,20116,41.736441255,-87.601285577
Dayton St & North Ave,11068,13058,41.9105780349,-87.6494219288
Dearborn Pkwy & Delaware Pl,18433,TA1307000128,41.898969,-87.629912
Dearborn St & Adams St,8231,TA1305000005,41.8793563587,-87.6297910363
Dearborn St & Erie St,21866,13045,41.893992,-87.629318
Dearborn St & Monroe St,16934,TA1305000006,41.881319815,-87.6295209193
Dearborn St & Van Buren St,5180,624,41.876268,-87.629155
Delano Ct & Roosevelt Rd,6319,KA1706005007,41.867491,-87.63219
Desplaines St & Jackson Blvd,11917,15539,41.87811890091227,-87.64394760131836
Desplaines St & Kinzie St,20548,TA1306000003,41.888716036,-87.6444478533
Desplaines St & Randolph St,8112,15535,41.883703,-87.644238
Dodge Ave & Church St,873,600,42.048308,-87.698224
Dodge Ave & Main St,478,E011,42.03463185161588,-87.69918769598006
Dodge Ave & Mulford St,521,662,42.023463,-87.699595
Dorchester Ave & 49th St,1207,KA1503000069,41.805772,-87.592464
Dorchester Ave & 63rd St,950,KA1503000046,41.7804056457,-87.5914159893
Doty Ave & 111th St,83,20114,41.69501044938143,-87.59871482849121
Drake Ave & Addison St,1437,KA1504000142,41.947326,-87.717582
Drake Ave & Montrose Ave,1083,KA1504000097,41.96115407569,-87.7165690733
Drexel Ave & 60th St,3760,22005,41.785861,-87.604553
DuSable Lake Shore Dr & Belmont Ave,17006,TA1309000049,41.940775,-87.639192
DuSable Lake Shore Dr & Diversey Pkwy,18385,TA1309000039,41.932588,-87.636427
DuSable Lake Shore Dr & Monroe St,35852,13300,41.880958,-87.616743
DuSable Lake Shore Dr & North Blvd,30117,LF-005,41.911722,-87.626804
DuSable Lake Shore Dr & Wellington Ave,14961,TA1307000041,41.9366884494997,-87.63682901859283
DuSable Museum,589,KA1503000075,41.791568,-87.607852
Dusable Harbor,19343,KA1503000064,41.886976,-87.612813
East End Ave & 87th St,73,20231,41.73681521440671,-87.58280128240585
Eastlake Ter & Howard St,1403,523,42.01920250193227,-87.66430288553238
Eberhart Ave & 131st St,7,20211,41.657982,-87.61073183333333
Eberhart Ave & 61st St,262,KA1503000033,41.784071072761,-87.61448353528975
Eberhart Ave & 91st St,59,20110,41.729285,-87.611032
Eckhart Park,7603,13289,41.89637337,-87.66098386
Eggleston Ave & 69th St,389,650,41.768897653,-87.635783911
Eggleston Ave & 92nd St,19,20118,41.727607166666665,-87.63489133333333
Elizabeth St & 47th St,77,553,41.80839,-87.656526
Elizabeth St & 59th St,88,647,41.789885163,-87.654667377
Elizabeth St & 92nd St,48,20119,41.726847172,-87.654286861
Elizabeth St & Fulton St,5813,13197,41.88671077318443,-87.65965729951859
Elizabeth St & Randolph St,8906,23001,41.884336,-87.658902
Ellis Ave & 53rd St,5770,KA1503000052,41.79933626261,-87.6009581145
Ellis Ave & 55th St,18084,KA1504000076,41.79430062054,-87.6014497734
Ellis Ave & 58th St,8130,TA1309000011,41.788746,-87.601334
Ellis Ave & 60th St,21782,KA1503000014,41.78509714636,-87.6010727606
Ellis Ave & 83rd St,74,584,41.744123,-87.599034
Elmwood Ave & Austin St,739,598,42.025784,-87.684107
Elston Ave & Cortland St,9201,TA1305000039,41.91643342912655,-87.66674637794495
Elston Ave & George St,1536,472,41.93402316666667,-87.69086866666666
Elston Ave & Henderson St,767,433,41.94149316666667,-87.7008895
Elston Ave & Wabansia Ave,2572,TA1309000032,41.912919,-87.664169
Emerald Ave & 28th St,2593,TA1307000153,41.84358,-87.645368
Emerald Ave & 31st St,5236,TA1309000055,41.838198,-87.645143
Evans Ave & 75th St,123,570,41.75849,-87.60641
Evanston Civic Center,1391,661,42.057044,-87.686554
Ewing Ave & Burnham Greenway,79,20223,41.71274876109496,-87.53481388092041
Exchange Ave & 79th St,162,580,41.752081275,-87.552090287
Fairbanks Ct & Grand Ave,14969,TA1305000003,41.89184737210993,-87.62058019638062
Fairbanks St & Superior St,6336,18003,41.895748,-87.620104
Fairfield Ave & 44th St,184,21380,41.813617,-87.6932272
Fairfield Ave & Pratt Blvd,96,24148,42.004667401,-87.698558211
Fairfield Ave & Roosevelt Rd,209,KA1504000102,41.866624,-87.694521
Federal St & Polk St,15268,SL-008,41.87207763285,-87.6295437729
Field Blvd & South Water St,10500,15534,41.88634906269,-87.6175165471
Field Museum,8917,13029,41.865312,-87.617867
Financial Pl & Ida B Wells Dr,9451,SL-010,41.875024,-87.633094
Fort Dearborn Dr & 31st St,3423,TA1307000048,41.838556,-87.608218
Fort Dearborn Dr & 31st St*,4423,chargingstx06,41.83867632897121,-87.60883212089539
Francisco Ave & 47th St,154,21381,41.80849,-87.69673
Francisco Ave & 85th St,16,23119,41.738902,-87.695518
Francisco Ave & Bloomingdale Ave,1017,429,41.914024949,-87.699448943
Francisco Ave & Chicago Ave,1147,411,41.89572416666667,-87.69859316666667
Francisco Ave & Foster Ave,1800,KA1504000160,41.97563272521,-87.7014194389
Francisco Ave & Hollywood Ave,108,460,41.98441966666667,-87.70151083333333
Francisco Ave & Montrose Ave,1107,446,41.961039782,-87.700913191
Franklin St & Adams St (Temp),9063,TA1309000008,41.87943409140013,-87.63550400733948
Franklin St & Chicago Ave,11020,13017,41.896746973093805,-87.63566762208939
Franklin St & Illinois St,12395,RN-,41.89102331025185,-87.63547986745834
Franklin St & Jackson Blvd,14912,TA1305000025,41.8777079559,-87.6353211408
Franklin St & Lake St,14377,TA1307000111,41.885837,-87.6355
Franklin St & Monroe St,13208,TA1309000007,41.880317,-87.635185
Fullerton & Monitor,91,474,41.923582333333336,-87.772159
Glenlake Ave & Pulaski Rd,8,24156,41.9924402,-87.7289072
Glenwood Ave & Morse Ave,3900,KA1504000175,42.00797192287,-87.6655023944
Glenwood Ave & Touhy Ave,1834,525,42.012701,-87.666058
Grace & Cicero,29,21322,41.949766755,-87.746924043
Grace St & Central Ave,18,23164,41.9495327,-87.7672648
Grace St & Cicero Ave,37,21322,41.949782014,-87.746914625
Granville Ave & Pulaski Rd,17,24156,41.9924402,-87.7289072
Green St & Madison St,16747,TA1307000120,41.881859328038225,-87.64926373958588
Green St & Randolph St*,6959,chargingstx3,41.883601657275165,-87.64862671494483
Green St & Washington Blvd,6510,13053,41.88318130597391,-87.64872461557388
Greenview Ave & Diversey Pkwy,6058,13294,41.93258963429789,-87.66593635082245
Greenview Ave & Fullerton Ave,9329,TA1307000001,41.92533,-87.6658
Greenview Ave & Jarvis Ave,2944,520,42.015962,-87.66857
Greenwood Ave & 47th St,2419,TA1308000002,41.809835,-87.599383
Greenwood Ave & 79th St,105,576,41.75132,-87.595982
Greenwood Ave & 91st St,56,20235,41.728668928,-87.597277403
Greenwood Ave & 97th St,131,20238,41.71870315475741,-87.59703576564789
Griffin Museum of Science and Industry,396,KA1503000074,41.79172820953,-87.583945009
Hale Ave & 107th St,159,20108,41.699206168127674,-87.66891896724701
Halsted St & 104th St,46,20125,41.70514,-87.642424
Halsted St & 111th St,108,20127,41.69226255589166,-87.64261186122894
Halsted St & 18th St,3807,13099,41.85750568031716,-87.64599144458771
Halsted St & 21st St,2418,13162,41.85377981072743,-87.6466029882431
Halsted St & 35th St,2752,TA1308000043,41.830661,-87.647172
Halsted St & 37th St,519,TA1307000161,41.827059,-87.64572
Halsted St & 47th Pl,211,KA1503000051,41.808134,-87.645617
Halsted St & 51st St,113,KA1503000010,41.80183164049,-87.645213904
Halsted St & 56th St,50,KA1503000011,41.79292964599,-87.6449900565
Halsted St & 59th St,43,593,41.787539,-87.644874
Halsted St & 63rd St,223,KA1503000055,41.77938114228,-87.6446208145
Halsted St & 69th St,135,15597,41.76906172032,-87.6446135779
Halsted St & 73rd St,90,20244,41.761663079,-87.644078016
Halsted St & 78th St,163,20233,41.75248701249013,-87.6439021574879
Halsted St & 96th St,270,20105,41.719712183618824,-87.6430195569992
Halsted St & Archer Ave,2620,TA1308000013,41.847203,-87.646795
Halsted St & Clybourn Ave,18220,331,41.909668,-87.648128
Halsted St & Dickens Ave,12986,13192,41.919936,-87.64883
Halsted St & Fulton St,16207,23003,41.886871,-87.648089
Halsted St & Maxwell St,9533,TA1309000001,41.864883,-87.647071
Halsted St & North Branch St,2002,KA1504000117,41.89939028549696,-87.64854490756989
Halsted St & Polk St,15225,TA1307000121,41.87184,-87.64664
Halsted St & Roosevelt Rd,7980,TA1305000017,41.867324,-87.648625
Halsted St & Roscoe St,16838,TA1309000025,41.94367,-87.64895
Halsted St & Willow St,8659,TA1307000166,41.913865,-87.648755
Halsted St & Wrightwood Ave,16243,TA1309000061,41.929143,-87.649077
Hamlin Ave & 62nd Pl,73,350,41.7799285,-87.71784166666667
Hamlin Ave & Grand Ave,171,372,41.903990746,-87.721576095
Hampden Ct & Diversey Ave,3888,202480.0,41.932503,-87.64261483333334
Harding Ave & 26th St,86,332.0,41.8447035,-87.72336333333334
Harding Ave & 31st St,10,24234,41.836679935,-87.723182321
Harding Ave & Chicago Ave,13,24207,41.895313,-87.724738
Harding Ave & Division St,34,24203,41.902649,-87.725003
Harlem & Irving Park,312,326,41.95321633333333,-87.80712066666666
Harlem Ave & Bloomingdale Ave,20,21377,41.912078619,-87.805860162
Harlem Ave & Grace St,62,325,41.948930383,-87.806814313
Harlem Ave & Irving Park Rd,18,21326,41.95326,-87.80714
Harper Ave & 59th St,2947,KA1503000070,41.78794281287,-87.5883151702
Hegewisch Metra Station,71,20215,41.64850076266409,-87.54608988761902
Hermitage Ave & Polk St,5680,13080,41.871514,-87.669886
Homan Ave & 65th St,48,392,41.775139332,-87.708042145
Homan Ave & Fillmore St,59,364.0,41.868104,-87.71082116666666
Homewood Ave & 115th St,45,20206,41.684595,-87.670708
Honore St & Division St,10915,TA1305000034,41.903119,-87.673935
Houston Ave & 92nd St,126,20242,41.72820421535798,-87.54970014095306
Hoyne Ave & 34th St,143,21337,41.8320245,-87.6778387
Hoyne Ave & 47th St,392,KA1504000091,41.808227,-87.67718
Hoyne Ave & Balmoral Ave,2269,655,41.979851,-87.681932
Humboldt Blvd & Armitage Ave,4906,15651,41.91751339399,-87.7018089555
Indiana Ave & 103rd St,44,20112,41.70717027117756,-87.6184719800949
Indiana Ave & 133rd St,17,20240,41.653741833333335,-87.61712533333333
Indiana Ave & 26th St,3103,TA1307000005,41.845687,-87.622481
Indiana Ave & 31st St,4442,TA1308000036,41.838842,-87.621857
Indiana Ave & 40th St,283,13083,41.82168,-87.6216
Indiana Ave & Roosevelt Rd,23306,SL-005,41.867888,-87.623041
Jefferson St & Monroe St,8108,WL-011,41.880329633634624,-87.64274597167967
Jeffery Blvd & 67th St,499,KA1503000030,41.77351755125,-87.5771428255
Jeffery Blvd & 71st St,394,KA1503000018,41.76663823695,-87.5764501141
Jeffery Blvd & 76th St,99,KA1503000028,41.75709166666667,-87.57590433333333
Karlov Ave & Armitage Ave,282,23190,41.91748,-87.728952
Karlov Ave & Lawrence Ave,167,23107,41.967947,-87.730409
Karlov Ave & Madison St,103,534,41.880864739,-87.727980614
Kedvale Ave & Peterson Ave,29,24159,41.9900762,-87.7317073
Kedzie Ave & 104th St,53,20201,41.703825474,-87.701365829
Kedzie Ave & 110th St,173,20204,41.69239474587557,-87.70096063613892
Kedzie Ave & 21st St,378,15686,41.8535735,-87.70512283333333
Kedzie Ave & 24th St,130,KA1504000086,41.848193,-87.705412
Kedzie Ave & 45th St,76,342,41.811487913,-87.703960061
Kedzie Ave & 48th Pl,697,382,41.804760218,-87.704105496
Kedzie Ave & 52nd St,118,384,41.799059666666665,-87.70347033333333
Kedzie Ave & 57th St,231,21346,41.78983,-87.7031
Kedzie Ave & 66th Pl,67,23143,41.772584,-87.703007
Kedzie Ave & 73rd St,34,23136,41.760703,-87.702292
Kedzie Ave & 83rd St,31,23117,41.742523,-87.702279
Kedzie Ave & Archer Ave,7,24243,41.81447,-87.70411
Kedzie Ave & Bryn Mawr Ave,713,KA1504000167,41.98223,-87.708887
Kedzie Ave & Chicago Ave,603,KA1504000114,41.895513666666666,-87.706125
Kedzie Ave & Foster Ave,1129,KA1504000128,41.975672,-87.709261
Kedzie Ave & George St,1061,436,41.933933,-87.707243
Kedzie Ave & Harrison St,116,KA1504000082,41.87359967462,-87.7048707493
Kedzie Ave & Jackson Blvd,23,24213,41.877415061,-87.706427097
Kedzie Ave & Lake St,699,KA1504000106,41.88460328501,-87.7063037436
Kedzie Ave & Leland Ave,2054,KA1504000126,41.96668636205,-87.7080519806
Kedzie Ave & Milwaukee Ave,10707,13085,41.929567,-87.707857
Kedzie Ave & Palmer Ct,3832,13292,41.921525,-87.707322
Kedzie Ave & Redfield Dr,93,23139,41.76523,-87.70316
Kedzie Ave & Roosevelt Rd,182,15682,41.866524339,-87.706472516
Keeler Ave & Carmen Ave,126,23110,41.974323,-87.7331
Keeler Ave & Roosevelt Rd,43,330.0,41.86634466666667,-87.72998866666667
Kenneth Ave & 50th St,82,402,41.80237833333333,-87.73447716666666
Kenneth Ave & Lawrence Ave,178,23106,41.967943,-87.739983
Kenosha & Wellington,177,361,41.934384584,-87.733770967
Kenosha Ave & Wellington Ave,333,21361,41.934457,-87.733795
Kenton Ave & Madison St,61,537,41.880708,-87.741018
Keystone Ave & Fullerton Ave,1021,16010,41.92459,-87.72785
Keystone Ave & Montrose Ave,744,KA1504000164,41.96110801623,-87.7289701012
Kilbourn & Belden,122,359,41.922336,-87.738992
Kilbourn & Roscoe,165,360,41.942742333333335,-87.73953766666666
Kilbourn Ave & Belden Ave,115,21359,41.922369,-87.739024
Kilbourn Ave & Irving Park Rd,635,590,41.953733,-87.740569
Kilbourn Ave & Milwaukee Ave,483,16994,41.94707089418471,-87.74000823497772
Kilbourn Ave & Roscoe St,143,21360,41.942722,-87.739557
Kildare & Cermak,64,333.0,41.851435,-87.73207083333334
Kildare & Chicago Ave,6,21371,41.895394325,-87.733544707
Kildare Ave & 26th St,80,21365,41.844228745,-87.732088685
Kildare Ave & 47th St,120,401,41.80762166666667,-87.73088816666667
Kildare Ave & 55th St,73,21403,41.79332,-87.73059
Kildare Ave & 85th St,23,23114,41.738463,-87.728572
Kildare Ave & Chicago Ave,49,371,41.895442009,-87.733602524
Kildare Ave & Division St,92,303,41.902511358,-87.733679652
Kildare Ave & Montrose Ave,854,KA1706005015,41.96108,-87.73569
Kildare Ave & North Ave,45,23192,41.909481,-87.733827
Kilpatrick Ave & Grand Ave,166,21374,41.912662833333336,-87.74353583333334
Kilpatrick Ave & Parker Ave,254,358,41.930770833333334,-87.74406983333333
Kimball Ave & Belmont Ave,2716,KA150400009X,41.93939395344302,-87.71206766366959
Kimbark Ave & 53rd St,14264,TA1309000037,41.799568,-87.594747
Kingsbury St & Erie St,18376,13265,41.89380805624359,-87.64169722795485
Kingsbury St & Kinzie St,31227,KA1503000043,41.88917683258,-87.6385057718
Knox Ave & Marquette Ave,1,24146,41.771047354,-87.737566829
Knox Ave & Montrose Ave,1204,592,41.960631,-87.745359
Komensky Ave & 31st St,271,335.0,41.836662833333335,-87.72563183333334
Komensky Ave & 55th St,128,347,41.79343866666667,-87.72433783333334
Kosciuszko Park,2129,15643,41.93058537138,-87.7237773635
Kostner Ave & 63rd St,110,406,41.778792262,-87.732464552
Kostner Ave & Adams St,160,545,41.877948403,-87.736109018
Kostner Ave & Belmont Ave,57,23172,41.939191,-87.737112
Kostner Ave & Bryn Mawr Ave,83,24153,41.982765,-87.738094
Kostner Ave & Devon Ave,22,24155,41.997032,-87.73837
Kostner Ave & Lake St,75,536,41.885893583,-87.735507846
Kostner Ave & Wrightwood Ave,468,23321,41.927957,-87.735952
La Villita Park,8,21336,41.83925,-87.70202
La Villita Park (Albany/30th),42,336,41.83928733333333,-87.70198233333333
LaSalle Dr & Huron St,10185,KP1705001026,41.894877,-87.632326
LaSalle St & Adams St,4535,KA1503000034,41.87934437346,-87.6319852213
LaSalle St & Illinois St,19702,13430,41.890762,-87.631697
LaSalle St & Jackson Blvd,14459,TA1309000004,41.878166,-87.631929
LaSalle St & Washington St,7524,13006,41.882664,-87.63253
Laflin St & Cullerton St,2473,13307,41.85491457576575,-87.66355991363525
Lake Park Ave & 35th St,3446,KA1503000004,41.83127423549,-87.6087991946
Lake Park Ave & 47th St,1639,TA1308000035,41.809443,-87.591875
Lake Park Ave & 53rd St,6534,KA1503000059,41.79949429373,-87.5864498959
Lake Park Ave & 56th St,8809,TA1309000063,41.793242,-87.587782
Lakefront Trail & Bryn Mawr Ave,10327,15576,41.98404411519213,-87.65228122472763
Lakefront Trail & Wilson Ave,7519,639,41.965845,-87.645361
Lakeview Ave & Fullerton Pkwy,16496,TA1309000019,41.925858,-87.638973
Lamon Ave & Armitage Ave,224,21357,41.91676,-87.749458
Lamon Ave & Belmont Ave,198,316,41.938988,-87.74920716666666
Lamon Ave & Chicago Ave,80,302,41.895268917,-87.748245716
Laramie Ave & Addison St,16,23167,41.9456842,-87.7569344
Laramie Ave & Gladys Ave,24,543,41.875806,-87.755285
Laramie Ave & Irving Park Rd,40,23163,41.953234911,-87.758435249
Laramie Ave & Kinzie St,95,530,41.887832,-87.755527
Laramie Ave & Madison St,119,540,41.880207,-87.755337
Larrabee St & Armitage Ave,7372,TA1309000006,41.918084,-87.643749
Larrabee St & Division St,9191,KA1504000079,41.90348607004,-87.6433534936
Larrabee St & Kingsbury St,19910,TA1306000009,41.897764,-87.642884
Larrabee St & Menomonee St,5224,TA1306000007,41.91468,-87.64332
Larrabee St & North Ave,6529,TA1306000008,41.91021,-87.6435
Larrabee St & Oak St,8360,KA1504000116,41.90021949323,-87.6429854676
Larrabee St & Webster Ave,17204,13193,41.921822,-87.64414
Latrobe Ave & Chicago Ave,91,642,41.894745,-87.756895
Lavergne & Fullerton,123,356,41.923939109,-87.751172543
Lavergne Ave & 46th St,20,399,41.809338689,-87.747799039
Lavergne Ave & Division St,41,304,41.902174,-87.75098166666666
Lavergne Ave & Fullerton Ave,100,21356,41.924034,-87.751191
Lawler Ave & 50th St,122,400,41.8021565,-87.7489355
Lawler Ave & North Ave,8,24198,41.9091754,-87.7522545
Lawndale Ave & 111th St,129,20203,41.69131919221066,-87.71288573741913
Lawndale Ave & 16th St,58,362.0,41.859184166666665,-87.71768583333333
Lawndale Ave & 30th St,133,21334,41.838890672,-87.716895223
Leamington Ave & Hirsch St,32,21307,41.905860305,-87.754863977
Leavitt St & Addison St,2673,KA1504000143,41.946655,-87.683359
Leavitt St & Archer Ave,1078,KA1503000068,41.82879201994,-87.6806044594
Leavitt St & Armitage Ave,5802,TA1309000029,41.917805,-87.682437
Leavitt St & Belmont Ave,4046,KA17018068,41.939354,-87.683282
Leavitt St & Chicago Ave,4833,18058,41.895501,-87.682017
Leavitt St & Division St,4651,658,41.902997,-87.683825
Leavitt St & Lawrence Ave,2851,TA1309000015,41.968885,-87.684001
Leavitt St & North Ave,5986,TA1308000005,41.91050936666395,-87.6823890209198
Leavitt St/North Ave,809,PI00003,41.910077,-87.682306
Leclaire Ave & Belmont Ave,40,23171,41.939041,-87.754197
Lexington & California Ave,6,23215,41.871924758,-87.695833921
Lexington St & California Ave,30,23215,41.872158,-87.696044
Lincoln Ave & Addison St,3286,TA1309000050,41.946176,-87.673308
Lincoln Ave & Balmoral Ave,530,442,41.9795405,-87.69303466666666
Lincoln Ave & Belle Plaine Ave,4557,TA1309000026,41.95600355078549,-87.68016144633293
Lincoln Ave & Belmont Ave (Temp),321,TA1309000042,41.939532,-87.671114
Lincoln Ave & Byron St,3849,23002,41.952372,-87.677296
Lincoln Ave & Diversey Pkwy,11310,TA1307000064,41.932225,-87.658617
Lincoln Ave & Fullerton Ave,18346,TA1309000058,41.924161029067626,-87.64638036489487
Lincoln Ave & Melrose St,7975,TA1309000042,41.9406,-87.669435
Lincoln Ave & Peterson Ave,543,21462,41.990267,-87.70857
Lincoln Ave & Roscoe St*,6719,chargingstx5,41.9433502470174,-87.67066776752472
Lincoln Ave & Sunnyside Ave,5403,TA1307000156,41.963004,-87.684781
Lincoln Ave & Waveland Ave,3983,13253,41.948797,-87.675278
Lincoln Ave & Winona St,2130,KA1504000078,41.97491129677,-87.6925025594
Lincoln Park Conservatory,11595,LP-,41.92393131136619,-87.63582453131676
Lincolnwood Dr & Central St,424,E014,42.064854,-87.715297
Lockwood Ave & Wrightwood Ave,306,21312,41.927766,-87.758544
Lockwood Ave and Grand Ave,24,23187,41.9175941,-87.7584143
Logan Blvd & Elston Ave,5218,TA1308000031,41.929465,-87.684158
Long & Irving Park,628,398,41.95303533333333,-87.76216233333334
Long Ave & Belden Ave,182,313,41.922745943,-87.760982156
Long Ave & Belmont Ave,203,317,41.938353062,-87.761663675
Long Ave & North Ave,45,21375,41.909070611,-87.760939956
Loomis Blvd & 84th St,98,20121,41.741486528618054,-87.65841007232666
Loomis St & 89th St,40,20102,41.73237975329554,-87.65806943178177
Loomis St & Archer Ave,1170,KA1503000040,41.841633,-87.657435
Loomis St & Jackson Blvd,5633,13206,41.877945,-87.662007
Loomis St & Lexington St,18013,13332,41.87222873224032,-87.66136385500431
Lowell Ave & Armitage,84,1524189,41.916994691,-87.735258818
MLK Jr Dr & 29th St,14421,TA1307000139,41.842052,-87.617
MLK Jr Dr & 47th St,641,TA1308000007,41.809851,-87.616279
MLK Jr Dr & 56th St,292,KA1503000073,41.79342945658,-87.6158532619
MLK Jr Dr & 63rd St,244,KA1503000053,41.78008063659,-87.6159428567
MLK Jr Dr & 83rd St,105,586,41.743116,-87.6148
MLK Jr Dr & Pershing Rd,1329,13420,41.8246,-87.61678
MTV Hubbard St,1113,021320,41.889733434,-87.680329204
Major Ave & Addison St,7,23166,41.9458348,-87.7691848
Major Ave & Bloomingdale Ave,60,308,41.912617207,-87.768563032
Major Taylor Trail & 115th St,64,20207,41.684932,-87.645289
Major Taylor Trail & 124th St,38,20208,41.66869635332246,-87.63711333274841
Malcolm X College,1973,631,41.877618,-87.673895
Mango Ave & Diversey Ave,29,23175,41.931048,-87.769813
Mango Ave & North Ave,5,24196,41.90958,-87.7691175
Manor Ave & Leland Ave,1633,KA1504000127,41.965875,-87.700825
Maplewood Ave & 59th St,110,389,41.786286235,-87.68748951
Maplewood Ave & Peterson Ave,553,KA1504000130,41.99023602867,-87.6933696402
Marine Dr & Ainslie St,5927,KA1504000171,41.9716,-87.650154
Marmora Ave & Belmont Ave,14,23170,41.9382897,-87.7737692
Marmora Ave & Irving Park Rd,37,23162,41.9531072,-87.7747326
Marquette Ave & 89th St,56,20239,41.733669,-87.558342
Marshfield Ave & 44th St,209,549,41.813996,-87.666589
Marshfield Ave & 59th St,66,560,41.78667593,-87.666176438
Martin Luther King Dr & 111th St,104,20115,41.69261766666666,-87.61362033333333
Maryland Ave & 104th St,60,20134,41.7056135,-87.60291466666666
Mason Ave & Belmont Ave,106,473,41.938339829,-87.772507548
Mason Ave & Grand Ave,12,1523185.1,41.920560122,-87.774321437
May St & 69th St,373,567,41.768938,-87.652934
May St & Cullerton St,2189,13331,41.855136,-87.654127
May St & Taylor St,11166,13160,41.8694821,-87.6554864
Mayfield & Roosevelt Rd,43,367,41.86569933333333,-87.7716445
Mayfield Ave & Roosevelt Rd,21,21367,41.86569,-87.77176
McClurg Ct & Erie St,14007,KA1503000041,41.894503,-87.617854
McClurg Ct & Ohio St,18255,TA1306000029,41.892592119709725,-87.61728912591934
McCormick Blvd & Devon Ave,495,23101,41.997136,-87.711217
McCormick Place,6625,TA1305000004,41.8513751729,-87.6188346489
Meade Ave & Addison St,123,324,41.945877314,-87.778814197
Meade Ave & Diversey Ave,144,353,41.930814833333336,-87.77843916666667
Meade Ave & Fullerton Ave,10,24178,41.924998045,-87.77822113
Menard Ave & Division St,31,305,41.902314186,-87.770692587
Menard Ave & North Ave,32,376,41.90966,-87.77025433333333
Michigan Ave & 114th St,32,20243,41.687055111,-87.621124148
Michigan Ave & 14th St,11234,TA1307000124,41.864059,-87.623727
Michigan Ave & 18th St,7984,13150,41.857813,-87.62455
Michigan Ave & 71st St,254,651,41.765286,-87.621748
Michigan Ave & 8th St,16292,623,41.872773,-87.623981
Michigan Ave & Ida B Wells Dr,6772,TA1305000010,41.876243,-87.624426
Michigan Ave & Jackson Blvd,10673,TA1309000002,41.878616,-87.624166
Michigan Ave & Lake St,18454,TA1305000011,41.886022,-87.624398
Michigan Ave & Madison St,8704,13036,41.882134,-87.625125
Michigan Ave & Oak St,31666,13042,41.90096039,-87.62377664
Michigan Ave & Pearson St,9047,13034,41.89766,-87.62351
Michigan Ave & Washington St,20146,13001,41.8839840647265,-87.6246839761734
Mies van der Rohe Way & Chestnut St,11992,15529,41.8985866514,-87.6219152258
Mies van der Rohe Way & Chicago Ave,12130,13338,41.896944626370825,-87.62175768613815
Millard Ave & 26th St,280,KA1504000110,41.844531,-87.715922
Millennium Park,25881,13008,41.8810317,-87.62408432
Milwaukee Ave & Cuyler Ave,908,16991,41.954468,-87.749594
Milwaukee Ave & Fullerton Ave,3372,428,41.924733,-87.70051783333334
Milwaukee Ave & Grand Ave,13479,13033,41.891578,-87.648384
Milwaukee Ave & Rockwell St,3487,13242,41.92019556200566,-87.69265919923781
Milwaukee Ave & Wabansia Ave,10883,13243,41.912616,-87.681391
Monitor Ave & Division St,14,24199,41.90192,-87.77178
Monticello Ave & Chicago Ave,75,301,41.8951595,-87.71747283333333
Monticello Ave & Irving Park Rd,1762,KA1504000139,41.95400483876,-87.7191281797
Monticello Ave & Lawrence Ave,485,23108,41.968204,-87.719547
Montrose Harbor,17108,TA1308000012,41.963982,-87.638181
Morgan Ave & 14th Pl,3768,TA1306000002,41.862378,-87.651062
Morgan St & 18th St,4505,13163,41.858086,-87.651073
Morgan St & 31st St,3426,TA1308000046,41.8378,-87.65114
Morgan St & Lake St*,8631,chargingstx4,41.88549170626906,-87.65228927135468
Morgan St & Pershing Rd,176,16933,41.823613,-87.650931
Morgan St & Polk St,17703,TA1307000130,41.871737,-87.65103
Mozart St & 79th St,2,23129,41.749639333333334,-87.693933
Mozart St & Jackson Blvd,80,418,41.877619028,-87.697516203
Mulligan Ave & Wellington Ave,62,351,41.93473816666667,-87.78433783333334
Museum of Science and Industry,4479,KA1503000074,41.79172820953,-87.583945009
N Carpenter St & W Lake St,2143,20251.0,41.885636568,-87.652967572
N Clark St & W Elm St,496,20249.0,41.902698159,-87.631497502
N Damen Ave & W Chicago Ave,1388,20255.0,41.895837069,-87.677865982
N Green St & W Lake St,5560,20246.0,41.8856598,-87.64843343333334
N Paulina St & Lincoln Ave,1956,20253.0,41.943790666666665,-87.67168233333334
N Sheffield Ave & W Wellington Ave,1919,20256.0,41.936202526,-87.653642297
N Shore Channel Trail & Argyle St,1030,444,41.972241833333335,-87.70276083333333
N Southport Ave & W Newport Ave,1855,20257.0,41.943740249,-87.664028764
Narragansett & Irving Park,305,323,41.95259883333333,-87.78534183333333
Narragansett & McLean,114,309,41.915853,-87.7851075
Narragansett & Wrightwood,327,314,41.927334,-87.785182
Narragansett Ave & McLean Ave,35,21309,41.9159,-87.78511
Narragansett Ave & School St,199,397,41.94010633333333,-87.78636133333333
Narragansett Ave & Wrightwood Ave,40,21314,41.92729,-87.78523
New St & Illinois St,17958,TA1306000013,41.890847,-87.618617
Noble St & Milwaukee Ave,4360,13290,41.9007,-87.662607
Noble St & Milwaukee Ave (Temp),2030,13290,41.89984,-87.661463
Nordica & Medill,65,378,41.922293663,-87.802126765
Normal Ave & Archer Ave,1321,TA1308000014,41.849527,-87.640591
North Ave & New England Ave,62,310,41.90930383333333,-87.79715583333333
Oak Park & Wellington,78,318,41.934597373,-87.795800924
Oakley Ave & Irving Park Rd,2291,KA1504000158,41.95434085219,-87.6860796243
Oakley Ave & Touhy Ave,725,RP-004,42.012342,-87.688243
Ogden Ave & Chicago Ave,11450,TA1305000020,41.896362458,-87.6540612729
Ogden Ave & Congress Pkwy,3541,13081,41.87501,-87.67328
Ogden Ave & Race Ave,7977,13194,41.891795,-87.658751
Ogden Ave & Roosevelt Rd,2022,KA1504000101,41.866501,-87.684697
Oglesby Ave & 100th St,52,20226,41.71339748442245,-87.56584167480469
Oketo Ave & Addison St,41,393,41.944949,-87.8119175
Olive Harvey College,22,20111,41.70958113526255,-87.59023368358612
Orange & Addison,55,320,41.944845557,-87.824272633
Orleans St & Chestnut St (NEXT Apts),7910,620,41.898203,-87.637536
Orleans St & Elm St,5524,TA1306000006,41.902924,-87.637715
Orleans St & Hubbard St,7537,636,41.890028,-87.636618
Orleans St & Merchandise Mart Plaza,16787,TA1305000022,41.888243,-87.63639
Panama Ave & Grace St,14,394,41.94767233333334,-87.82926733333333
Parkside Ave & Armitage Ave,29,21354,41.916907,-87.767173
Paulina Ave & 87th St,16,23122,41.735629,-87.66552
Paulina Ave & North Ave,6240,TA1305000037,41.90985465216731,-87.66993016004562
Paulina St & 18th St,3960,TA1307000159,41.857901,-87.668745
Paulina St & Flournoy St,7380,KA1504000104,41.87306108789792,-87.66913488507271
Paulina St & Howard St,2269,515,42.019159,-87.673573
Paulina St & Montrose Ave,5492,TA1309000021,41.961507,-87.671387
Peoria St & Jackson Blvd,15359,13158,41.8776415962753,-87.64961779117584
Perry Ave & 69th St,244,KA1503000047,41.76929308995,-87.6281959291
Pershing Rd & Sacramento Ave,22,21339,41.822582,-87.699417
Phillips Ave & 79th St,129,579,41.75182,-87.565211
Phillips Ave & 83rd St,45,582,41.744531,-87.56506
Pine Ave & Division St,21,24200,41.9018636,-87.7638197
Pine Grove Ave & Irving Park Rd,14324,TA1308000022,41.954383,-87.648043
Pine Grove Ave & Waveland Ave,17906,TA1307000150,41.94947274088333,-87.64645278453827
Ping Tom Park (East),708,20260.0,41.858227372,-87.631976724
Pittsburgh Ave & Irving Park Rd,12,21327,41.95202483333333,-87.833341
Plainfield & Irving Park,42,327,41.9520576,-87.833272338
Prairie Ave & 43rd St,660,KA1503000027,41.816659,-87.619412
Prairie Ave & Garfield Blvd,1155,TA1307000160,41.794853,-87.618691
Princeton Ave & 47th St,428,KA1503000009,41.80931770924,-87.633449288
Princeton Ave & Garfield Blvd,377,KA1503000013,41.794982,-87.633124
Prospect Sq & 91st St,180,20103,41.7282338,-87.6675239
Public Rack - 10101 S Stony Island Ave,2,922,41.708375833333335,-87.58101566666667
Public Rack - 10557 S Western Ave,7,989,41.701743007,-87.681337476
Public Rack - 111th St - Morgan Park Metra,55,682,41.69295366666667,-87.670616
Public Rack - 2302 S Pulaski Rd,2,537,41.84976483333333,-87.72479366666667
Public Rack - 4810 Keeler Ave,47,1128.0,41.968304992,-87.73292315
Public Rack - 532 E 43rd St,14,913,41.8167635,-87.61329316666667
Public Rack - 53rd St & Indiana Ave,1,959,41.798250794,-87.620858073
Public Rack - 56th St & Mulligan Ave,41,1092.0,41.790478468,-87.77990222
Public Rack - 61st St & Melvina Ave,22,1093.0,41.780905604,-87.776682138
Public Rack - 63rd & Western Ave N,3,739,41.77932416666667,-87.6838475
Public Rack - 63rd & Western Ave S,3,738,41.779303551,-87.683434844
Public Rack - 63rd Pl & Narraganssett Ave,48,1085.0,41.776469827,-87.78215766
Public Rack - 63rd St and Nagle Ave,7,1086.0,41.777612209,-87.78225112
Public Rack - 82nd st & Kedzie Ave,7,1076.0,41.743611932,-87.702272892
Public Rack - 83rd Pl & Kedzie Ave N,2,1077.0,41.741705333333336,-87.702282
Public Rack - 83rd St (Avalon Park) Metra,2,665,41.744057166666664,-87.59915633333334
Public Rack - 85th Pl & Pulaski Rd,2,1078.0,41.737378359,-87.721440554
Public Rack - Abbott Park,11,628,41.72159466666667,-87.62272783333333
Public Rack - Ada St & 117th St,1,590,41.681067586,-87.655285001
Public Rack - Ada St & 119th St,3,917,41.677410841,-87.654614806
Public Rack - Aida Food Market,3,888,41.749760032,-87.64406085
Public Rack - Al Raby School,2,521,41.886376739,-87.714694262
Public Rack - Albany Ave & 111th St - NW,3,678,41.691664934,-87.698979497
Public Rack - Albany Ave & 63rd St,7,756,41.778938055,-87.700604796
Public Rack - Archer Park,2,828,41.803808689,-87.735275865
Public Rack - Artesian & 71st,4,1245.0,41.764823675,-87.684378386
Public Rack - Ashburn Metra ,1,1283.0,41.74121809,-87.713127255
Public Rack - Ashland Ave & 46th St,3,842,41.810423017,-87.665011644
Public Rack - Ashland Ave & 63rd St,15,996,41.779410243,-87.663811326
Public Rack - Ashland Ave & 71st St,14,742,41.766078666666665,-87.66456983333333
Public Rack - Ashland Ave & 74th St,1,1071,41.7596965,-87.66382466666667
Public Rack - Ashland Ave & 76th St,2,719,41.75592339,-87.663913131
Public Rack - Ashland Ave & 83rd St,7,993,41.742775,-87.66338216666666
Public Rack - Ashland Ave & 91st St,72,984,41.728391528,-87.662688732
Public Rack - Austin & Higgins,16,1201.0,41.97301209,-87.777848601
Public Rack - Austin Ave & Archer Ave,5,1096.0,41.794291666666666,-87.77151883333333
Public Rack - Austin Ave & Roscoe St,12,560,41.942463279,-87.776451826
Public Rack - Austin Ave & Wellington Ave,7,564,41.935313463,-87.776038051
Public Rack - Austin Ave & Wrightwood Ave,82,565,41.927561164,-87.775658727
Public Rack - Austin Blvd & North Ave,8,571,41.909550905,-87.775741696
Public Rack - Austin Branch Chicago Public Library,5,794,41.88920066666667,-87.76575066666666
Public Rack - Ave N & 106th St,10,978,41.702749833333336,-87.538676
Public Rack - Avenue J & 102nd St,6,635,41.709985137,-87.534275293
Public Rack - Avenue J & 106th St,6,615,41.702574849,-87.533489585
Public Rack - Avenue J & 112th St,3,599,41.691741109,-87.534349799
Public Rack - Avenue M & 132nd St,9,673,41.65568116666667,-87.53742116666666
Public Rack - Avers & Granville,33,1215.0,41.993797898,-87.724891067
Public Rack - Avers & Lawrence,125,1226.0,41.968418717,-87.724430323
Public Rack - Avers Ave & Archer Ave,7,824,41.804350615,-87.719522357
Public Rack - Avers Ave & Irving Park Rd,94,494,41.953699666666665,-87.724432
Public Rack - Avers Ave & Ogden Ave,5,533,41.85264504,-87.720813155
Public Rack - Avondale Ave & Addison St,40,498,41.94656283333333,-87.71978783333333
Public Rack - Back of the Yards Park,1,818,41.8044976,-87.65769887
Public Rack - Baker Ave & 863rd Pl,1,892,41.743433356,-87.550249696
Public Rack - Baltimore Ave & 132nd St,5,584,41.655140758,-87.547052979
Public Rack - Baltimore Ave & 133rd St,19,581,41.653251171,-87.547087193
Public Rack - Baltimore Ave & 134th St,1,583,41.651368737,-87.547286391
Public Rack - Bell Ave & 95th St,16,698,41.72118628,-87.678719163
Public Rack - Bernard St & Foster Ave,11,1133.0,41.975637794,-87.712820411
Public Rack - Bishop St & 46th St,26,844,41.809731841,-87.66123569
Public Rack - Brainerd Park,7,1023,41.726926088,-87.654920101
Public Rack - Brandon Ave & 91st St,30,847,41.73014307,-87.546628475
Public Rack - Brighton Park Branch Chicago Library,4,784,41.815182447,-87.702654958
Public Rack - Brooks Park,3,1169.0,42.004502654,-87.806933999
Public Rack - Bryn Mawr Ave & Milwaukee Ave,12,1146.0,41.982722833333334,-87.77434266666667
Public Rack - Bryn Mawr Ave & Spaulding Ave,31,1150.0,41.983115833333336,-87.71152783333334
Public Rack - Buffalo Ave & 133rd St,4,672,41.654378772,-87.543798804
Public Rack - Buffalo Ave & 89th St,15,846,41.73329916666667,-87.54439616666667
Public Rack - California & 71st,3,1246.0,41.764605,-87.69350483333334
Public Rack - California & 87th,4,1266.0,41.735689666666666,-87.69218416666666
Public Rack - California Ave & Cortez St,215,512,41.900417,-87.69671216666667
Public Rack - California Ave & Devon Ave - NE,108,487,41.998220325,-87.699779868
Public Rack - California Ave & Devon Ave - NW,40,486,41.998645067,-87.699643731
Public Rack - California Ave & Ogden Ave,28,534,41.86071416666667,-87.69583983333334
Public Rack - California Ave & Pershing Rd,10,783,41.822865963,-87.694952488
Public Rack - California Ave & Touhy Ave - NW,59,479,42.012099,-87.6999015
Public Rack - California Ave & Touhy Ave - SW,10,478,42.0120525,-87.70024
Public Rack - California Ave & Touhy Ave - midblock,3,477,42.01202266666667,-87.70044183333333
Public Rack - Calumet Ave & 103rd St,2,609,41.707316875,-87.615586877
Public Rack - Calumet Ave & 133rd St,1,669,41.653700666666666,-87.61438816666667
Public Rack - Calumet Ave & 51st St,103,813,41.80209033333333,-87.61844516666666
Public Rack - Calumet Ave & 71st St,3,728,41.765603423,-87.616917133
Public Rack - Campbell Ave & Pratt Blvd,94,929,42.0051,-87.69256916666667
Public Rack - Canfield & Victoria,5,1183.0,41.98482666666666,-87.82320516666667
Public Rack - Canty Elementary School,5,574,41.947601438,-87.829292893
Public Rack - Central & Berteau,15,1191.0,41.9568785,-87.76733633333333
Public Rack - Central & Leland,38,1192.0,41.96537083333333,-87.767355
Public Rack - Central & Prescott,8,1208.0,41.992810666666664,-87.76556283333333
Public Rack - Central Ave & Adams St,2,790,41.878342986,-87.764851689
Public Rack - Central Ave & Corcoran Pl,20,793,41.887359977,-87.765244961
Public Rack - Central Ave & George St,23,563,41.93273766666667,-87.76617816666666
Public Rack - Central Ave & Lawrence Ave,48,1119.0,41.967859268,-87.767723441
Public Rack - Central Ave & North Ave,10,568,41.90917616666667,-87.766178
Public Rack - Central Ave & Pensacola Ave,74,1102.0,41.959993124,-87.767172933
Public Rack - Central Park & Bryn Mawr,16,1222.0,41.9828985,-87.7195925
Public Rack - Central Park & Peterson,13,1218.0,41.9901505,-87.7187285
Public Rack - Central Park Ave & Fillmore St,13,524,41.86808633333333,-87.71514166666667
Public Rack - Central Park Ave & Fulton Blvd,1,1061,41.886311054,-87.715321779
Public Rack - Central Park Ave & Ogden Ave,6,532,41.854579806,-87.715215683
Public Rack - Champlain Ave & 134th St,2,670,41.65741383333334,-87.60644083333334
Public Rack - Champlain Ave & 65th St,139,999,41.775756359,-87.609410882
Public Rack - Chappel Ave & 71st St,10,737,41.766227126,-87.575577974
Public Rack - Chase Ave & Touhy Ave - NE,8,482,42.014707804,-87.690090179
Public Rack - Chase Ave & Touhy Ave - NW,4,481,42.0144805,-87.69034383333333
Public Rack - Chopin Park,12,542,41.942365646,-87.761843085
Public Rack - Christiana & Lincoln,44,1217.0,41.993541121,-87.712706208
Public Rack - Christiana Ave & 55th St,1,774,41.793194166666666,-87.70800466666667
Public Rack - Christiana Ave & Archer Ave,15,832,41.811886311,-87.707712889
Public Rack - Christiana Ave & Belmont Ave,313,499,41.939100623,-87.712068915
Public Rack - Christiana Ave & Bryn Mawr Ave,23,858,41.983154666666664,-87.7124425
Public Rack - Christiana Ave & Lawrence Ave,13,860,41.968675137,-87.712133408
Public Rack - Cicero & 64th,20,1242.0,41.77641809,-87.742456436
Public Rack - Cicero & Rosemont,9,1210.0,41.995688666666666,-87.748569
Public Rack - Cicero Ave & Altgeld St,28,548,41.925883651,-87.746355295
Public Rack - Cicero Ave & Belle Plaine Ave,27,1108.0,41.955823541,-87.747467875
Public Rack - Cicero Ave & Cortland St - midblock,18,552,41.915984333333334,-87.7461775
Public Rack - Cicero Ave & Le Moyne St - midblock,2,554,41.90694533333333,-87.7461515
Public Rack - Cicero Ave & North Ave,41,551,41.909463286,-87.745767832
Public Rack - Cicero Ave & Roscoe St,37,543,41.9424125,-87.74728933333333
Public Rack - Cicero Ave & Wellington Ave,12,546,41.93589,-87.74662366666666
Public Rack - Cicero Ave & Wrightwood Ave,101,547,41.92796,-87.74680083333334
Public Rack - Clyde Ave & 87th St,6,986,41.737139666666664,-87.57278616666666
Public Rack - Colfax Ave & 83rd St,11,890,41.744603515,-87.560979366
Public Rack - Columbus & 79th,18,1263.0,41.749247833333335,-87.704388
Public Rack - Commercial Ave & 89th St,7,651,41.733303547,-87.55131793
Public Rack - Cornell Ave & 87th Pl,3,941,41.73678816666666,-87.58281666666667
Public Rack - Cottage Grove & 84th St,4,664,41.741788387,-87.60485661
Public Rack - Cottage Grove & 85th St,5,663,41.739927888,-87.604792953
Public Rack - Cottage Grove & 86th St,20,662,41.738148093,-87.604719043
Public Rack - Cottage Grove Ave & 87th St,6,646,41.736619711,-87.606228352
Public Rack - Cottage Grove Ave & 91st St,1,648,41.729459763,-87.603807211
Public Rack - Cottage Grove Ave & 98th St,1,699,41.71626687,-87.604374409
Public Rack - Crandon Ave & 80th St,1,945,41.749440789,-87.568646193
Public Rack - Cumberland & Catherine,192,1182.0,41.977442026,-87.836741686
Public Rack - Damen & 81st,6,1272.0,41.74648571,-87.673100948
Public Rack - Damen & 87th,4,1274.0,41.7360735,-87.672704
Public Rack - Damen Ave & 47th St,6,841,41.808795929,-87.675155044
Public Rack - Damen Ave & 84th St,2,713,41.7402605,-87.6729595
Public Rack - Delphina & Foster,19,1181.0,41.973895907,-87.840858221
Public Rack - Devon Ave & Central Ave,3,1165.0,41.99738121,-87.764172077
Public Rack - Devon Ave & Minnehaha Ave (east),1,1159.0,41.997439384,-87.762831211
Public Rack - Division St & Christiana Ave,13,1054,41.902530313,-87.710676551
Public Rack - Drake Ave & Leland Ave,59,933,41.966021895,-87.716935396
Public Rack - East End Ave & 75th St,4,733,41.7588755,-87.5826535
Public Rack - East End Ave & 87th St,1,883,41.73707533333334,-87.58447733333334
Public Rack - Eberhart Ave & 61st St,6,955,41.78386366666667,-87.6130505
Public Rack - Eli Whitney Public School,18,539,41.839970827,-87.725721359
Public Rack - Elston Ave & Gunnison St,12,1130.0,41.9686625,-87.74041933333334
Public Rack - Elston Ave & Kenneth Ave,24,1129.0,41.967561333333336,-87.73950033333334
Public Rack - Emerald Ave & 43rd St,8,911,41.8163055,-87.64459133333334
Public Rack - Emerald Ave & 45th St,2,786,41.812637333333335,-87.64489866666666
Public Rack - Evans Ave & 63rd St,32,749,41.780509591,-87.607445598
Public Rack - Ewing Ave & 101st St,2,636,41.711729527,-87.535152435
Public Rack - Ewing Ave & 102nd St,2,983,41.70989066666667,-87.5351895
Public Rack - Ewing Ave & 105th St,3,613,41.704497099,-87.535842657
Public Rack - Ewing Ave & 106th St,5,980,41.702381611,-87.53543365
Public Rack - Ewing Ave & 106th St NW,4,612,41.702883124,-87.53539598
Public Rack - Ewing Ave & 107th St,14,979,41.700376272,-87.53549242
Public Rack - Ewing Ave & 95th St,1,982,41.722374916,-87.535920262
Public Rack - Ewing Ave & 96th St N,1,637,41.72159791,-87.535563946
Public Rack - Ewing Ave & 96th St S,1,1022,41.72054383333333,-87.53517483333333
Public Rack - Ewing Ave & 99th St,12,639,41.715984,-87.53535366666667
Public Rack - Ewing Ave & Indianapolis Ave,5,638,41.712357163,-87.535367727
Public Rack - Exchange Ave & 73rd Pl,6,947,41.76259172,-87.563914657
Public Rack - Fairfield Ave & 63rd St,6,1027,41.779204845,-87.692902803
Public Rack - Ford City Mall,13,1243.0,41.757150769,-87.741420746
Public Rack - Forest Glen & Peterson,82,1212.0,41.989964247,-87.742946744
Public Rack - Forest Glen Station ,25,1284.0,41.978690505,-87.755496621
Public Rack - Forrestville Ave & 47th St,33,815,41.80943833333333,-87.61332766666666
Public Rack - Foster Ave & Drake Ave,30,1017,41.975624333333336,-87.717754
Public Rack - Francisco Ave & Touhy Ave,5,476,42.011986,-87.701203
Public Rack - Fullerton Ave & Lavergne Ave,7,965,41.924033523,-87.751933932
Public Rack - Fullerton Ave & Narragansett Ave,58,1011,41.923845768,-87.78579247
Public Rack - Garfield Park Conservatory,12,1059,41.886569738,-87.71670711
Public Rack - Grand Ave & North Ave,3,867,41.909738,-87.73484366666666
Public Rack - Greenwood Ave & Lake Park Ave,27,788,41.81720683333333,-87.59954016666667
Public Rack - Haft Ave & Milwaukee Ave,220,1142.0,41.995561838,-87.786534548
Public Rack - Hale Ave & 111th St,2,901,41.691823244,-87.671373248
Public Rack - Halsted St & 102nd St,8,623,41.708081841,-87.643023252
Public Rack - Halsted St & 109th St,2,977,41.695764184,-87.642650962
Public Rack - Halsted St & 111th St,21,875,41.691923499,-87.642550707
Public Rack - Halsted St & 113th St,1,973,41.688529968,-87.642400503
Public Rack - Halsted St & 41st St,6,912,41.8198895,-87.64572283333334
Public Rack - Halsted St & 63rd St,11,745,41.779721737,-87.641600728
Public Rack - Halsted St & 64th St,8,744,41.777741551,-87.644659996
Public Rack - Halsted St & 76th St,21,724,41.755872333333336,-87.6441055
Public Rack - Halsted St & 77th St,1,726,41.753742814,-87.644037962
Public Rack - Halsted St & 80th St,9,887,41.748337507,-87.6440413
Public Rack - Halsted St & 94th St,1,709,41.723325014,-87.643234134
Public Rack - Halsted St & 95th St - SE,56,627,41.720696333333336,-87.64306083333334
Public Rack - Halsted St & 95th St - SW,15,626,41.720823169,-87.643353701
Public Rack - Hamilton Ave & 95th St,34,696,41.720976,-87.6767795
Public Rack - Hamilton Park,2,725,41.763324833333336,-87.63760483333333
Public Rack - Hamlin Ave & Chicago Ave,3,515,41.895346284,-87.721446276
Public Rack - Hamlin Ave & Fullerton Ave,252,507,41.924385548,-87.721332312
Public Rack - Hamlin Ave & Grand Ave,18,514,41.903682828,-87.720267534
Public Rack - Hamlin Ave & Madison St,8,1020,41.881180167,-87.720691323
Public Rack - Hamlin Ave & Montrose Ave,193,492,41.9610525,-87.72246033333333
Public Rack - Harding Ave & 47th St,14,826,41.807805896,-87.722808719
Public Rack - Harlem & Palatine,13,1178.0,41.995344,-87.80668233333333
Public Rack - Harlem & Summerdale,2,1188.0,41.977820666666666,-87.80680783333334
Public Rack - Harlem and W. 59th,6,1241.0,41.784767985,-87.801084876
Public Rack - Harold Washington Park,267,766,41.80098176,-87.584675312
Public Rack - Harper Ave & 63rd St,89,750,41.780715585,-87.58792448
Public Rack - Harriet E Sayre Public School,5,800,41.913419008,-87.798639655
Public Rack - Harvard Ave & 119th St,2,873,41.677999616,-87.630728602
Public Rack - Harvey Ave & North Ave,1,567,41.909288,-87.7824295
Public Rack - Hiawatha & Mendota,41,1175.0,42.00698916666666,-87.7779875
Public Rack - Hiawatha Ave & Minnehaha Ave,10,1168.0,41.9994575,-87.76054166666667
Public Rack - Hiawatha Park,3,572,41.94385783333333,-87.827693
Public Rack - Higgins Ave & Neva Ave,3,1135.0,41.9807615,-87.80566733333333
Public Rack - Holbrook St & Milwaukee Ave,22,1141.0,41.99236583333333,-87.78331383333334
Public Rack - Hollywood Park,164,1276.0,41.989285827,-87.711803198
Public Rack - Homan & 77th,2,1265.0,41.75349033333333,-87.7070485
Public Rack - Homan & 79th,18,1264.0,41.749872684,-87.707509995
Public Rack - Homan Ave & 26th St,11,869,41.844592,-87.71001416666667
Public Rack - Homan Ave & 62nd Pl,10,1037,41.779530764,-87.707948327
Public Rack - Homan Ave & Lake St,6,1060,41.88478966666667,-87.71116516666666
Public Rack - Homan Ave & Roosevelt,5,1065,41.866445541,-87.711002707
Public Rack - Honore St & 87th St,1,705,41.735927939,-87.669187188
Public Rack - Horner & 85th,1,1273.0,41.739338398,-87.668989182
Public Rack - Houston Ave & 131st St,13,585,41.65685633333333,-87.54830166666666
Public Rack - Houston Ave & 91st St,3,650,41.730267525,-87.549658775
Public Rack - Hoyne Ave & 110th Pl,14,902,41.692162333333336,-87.6739315
Public Rack - Hoyne Ave & 51st St,6,1045,41.80114066666667,-87.6768885
Public Rack - Hyde Park Blvd & 53rd St,511,767,41.79960227,-87.584353447
Public Rack - Hyde Park Blvd & 55th St,189,768,41.795157671,-87.584210038
Public Rack - Imlay & Milwaukee,25,1176.0,41.998965166666665,-87.78951816666667
Public Rack - Independence Blvd & Roosevelt,2,1063,41.866325333333336,-87.71822583333334
Public Rack - Indiana Ave & 111th St,7,594,41.692532659,-87.617971063
Public Rack - Ingleside Ave & 79th St,1,889,41.751243234,-87.600844383
Public Rack - Irving Park Rd & Austin Ave,24,1104.0,41.953142166666666,-87.77713783333333
Public Rack - Irving Park Rd & Leclaire Ave,73,1113.0,41.953474,-87.754899
Public Rack - Irving Park Rd & Melvina Ave,7,1106.0,41.952864166666664,-87.78073966666666
Public Rack - Irving Park Rd & Menard Ave,9,1103.0,41.95305066666667,-87.77252183333333
Public Rack - Irving Park Rd & Parkside Ave,13,1105.0,41.9531935,-87.68894666666667
Public Rack - James Madison School,2,732,41.759849191,-87.590653658
Public Rack - Jeffery Blvd & 67th St,17,753,41.773037076,-87.576627016
Public Rack - Jeffery Blvd & 81st St,1,944,41.749445319,-87.575861692
Public Rack - Jeffery Blvd & 83rd St,6,667,41.744395375,-87.575004578
Public Rack - Jeffrey Blvd & 71st St,18,736,41.766483188,-87.576306343
Public Rack - Jensen Park,57,932,41.964869666666665,-87.72071083333333
Public Rack - Jonathan Y Scammon Public School,37,503,41.941711664,-87.732564926
Public Rack - Justine St & 87th St,2,642,41.73604866666667,-87.66280716666667
Public Rack - Karlov Ave & 26th St,2,538,41.844117522,-87.727292657
Public Rack - Karlov Ave & Kamerling Ave,46,520,41.905684114,-87.728765845
Public Rack - Karlov Ave & Lawrence Ave,45,1127.0,41.96824193,-87.730080247
Public Rack - Karlov Ave & Milwaukee Ave,30,863,41.942558169,-87.729806423
Public Rack - Keating & Peterson,30,1211.0,41.990095019,-87.747195125
Public Rack - Kedvale Ave & 26th St,3,1068,41.844295382,-87.727866411
Public Rack - Kedvale Ave & 63rd St E,4,764,41.778733373,-87.726338148
Public Rack - Kedvale Ave & 63rd St W,69,1032,41.778682333333336,-87.72688283333333
Public Rack - Kedvale Ave & Addison St,4,864,41.946859833333335,-87.7306235
Public Rack - Kedvale Ave & Avondale Ave,12,496,41.952906966,-87.731048346
Public Rack - Kedvale Ave & Peterson Ave,12,1147.0,41.990257263,-87.732645869
Public Rack - Kedzie & 103rd St - East,2,685,41.705288529,-87.701208353
Public Rack - Kedzie & 103rd St - W,5,686,41.70494466666667,-87.70136833333333
Public Rack - Kedzie & 71st,2,1251.0,41.764646769,-87.702987313
Public Rack - Kedzie & 73rd,10,1249.0,41.760672569,-87.702378631
Public Rack - Kedzie Ave & 54th Pl,5,1050,41.794563333333336,-87.70345833333333
Public Rack - Kedzie Ave & 54th St - SE,19,823,41.79404664,-87.7034446
Public Rack - Kedzie Ave & 54th St - SW,10,825,41.795176833333336,-87.70374483333333
Public Rack - Kedzie Ave & 58th St,21,775,41.78833866666667,-87.70353616666667
Public Rack - Kedzie Ave & 60th St,52,1036,41.78526466666667,-87.70322733333333
Public Rack - Kedzie Ave & 61st Pl E,10,772,41.782462333333335,-87.7030025
Public Rack - Kedzie Ave & 61st Pl W,10,1039,41.78183816666667,-87.70328016666667
Public Rack - Kedzie Ave & 62nd Pl,7,1038,41.780081511,-87.703195572
Public Rack - Kedzie Ave & 63rd St,12,757,41.778746605,-87.703411102
Public Rack - Kedzie Ave & 64th St - SE,4,755,41.776910305,-87.703053713
Public Rack - Kedzie Ave & 64th St - SW,15,760,41.776889086,-87.703190804
Public Rack - Kedzie Ave & 83rd St,7,1079.0,41.743089318,-87.702342153
Public Rack - Kedzie Ave & Archer Ave,36,836,41.813698292,-87.704844832
Public Rack - Kedzie Ave & Argyle St,181,491,41.972077489,-87.708876729
Public Rack - Kedzie Ave & Arthington St,18,525,41.869973421,-87.706144094
Public Rack - Kedzie Ave & Chicago Ave,41,1055,41.895475166666664,-87.70612733333333
Public Rack - Kedzie Ave & Pershing Rd,8,839,41.82289133333333,-87.704338
Public Rack - Kedzie Ave & Walnut St,5,1062,41.885912418,-87.706351042
Public Rack - Keef Ave & South Chicago Ave,1,747,41.770937443,-87.611740589
Public Rack - Keeler Ave & 26th St,1,536,41.844115019,-87.7298522
Public Rack - Keeler Ave & 55th St,1,779,41.79308366666667,-87.728344
Public Rack - Keeler Ave & Madison St S,1,853,41.880873203,-87.731114984
Public Rack - Kenneth & Carmen,26,1225.0,41.972923636,-87.739288449
Public Rack - Kenneth Ave & 63rd St E,3,1034,41.778493,-87.73338566666666
Public Rack - Kenneth Ave & 63rd St W,4,762,41.778492928,-87.734205484
Public Rack - Kenton & Lawrence,26,1223.0,41.967978,-87.74326333333333
Public Rack - Kenton Ave & Palmer St,51,516,41.92065783333334,-87.74182866666666
Public Rack - Keystone Ave & Irving Park Rd,64,495,41.953456283,-87.730007887
Public Rack - Keystone Ave & North Ave,37,518,41.909921833333335,-87.72803583333334
Public Rack - Kilbourn Ave & Fullerton Ave,2,865,41.924451,-87.73980683333333
Public Rack - Kildare Ave & 63rd St,4,763,41.778503666666666,-87.73051666666667
Public Rack - Kildare Ave & Division Ave,1,868,41.902562618,-87.732723475
Public Rack - Kildare Ave & North Ave,31,1058,41.90980416666667,-87.73385166666667
Public Rack - Kildare Ave & Washignton Blvd,18,852,41.88206533333334,-87.73328916666667
Public Rack - Kilpatrick & Elston,48,1224.0,41.96995163,-87.743252039
Public Rack - Kimball & Ardmore,52,1219.0,41.987051,-87.71397166666667
Public Rack - Kimball Ave & Carmen Ave,57,490,41.973953724,-87.71329236
Public Rack - Kimball Ave & Lawrence Ave,52,1134.0,41.96786,-87.713416
Public Rack - Kimbark Ave & 63rd St,111,752,41.78043183333333,-87.59453733333334
Public Rack - Kimbark Ave & 67th St,5,751,41.77420783,-87.594365239
Public Rack - King Dr & 115th St,29,937,41.685430333333336,-87.61327683333333
Public Rack - King Dr & 71st St,23,995,41.76575183333333,-87.61463666666667
Public Rack - King Dr & 83rd St,1,658,41.743596077,-87.614526749
Public Rack - King Dr & Oakwood Blvd,3,956,41.822740436,-87.616554499
Public Rack - Kingston Ave & 75th St,5,949,41.7591165,-87.5619295
Public Rack - Kinzua Ave & Devon Ave,44,1161.0,41.997954845,-87.765411615
Public Rack - Kolin Ave & Archer Ave,5,831,41.800524354,-87.732104182
Public Rack - Komensky Ave & 26th St,4,1069,41.84419322,-87.726427078
Public Rack - Komensky Ave & 59th St,22,776,41.786010623,-87.723476052
Public Rack - Komensky Ave & 63rd St,28,1031,41.77870866666667,-87.72334766666667
Public Rack - Kostner & 83rd,3,1259.0,41.742052197,-87.731596708
Public Rack - Kostner & Bryn Mawr,19,1220.0,41.98279047,-87.737245798
Public Rack - Kostner & Peterson,32,1213.0,41.989945054,-87.738061786
Public Rack - Kostner Ave & Armitage Ave,345,866,41.917145166666664,-87.73621633333333
Public Rack - Kostner Ave & Diversey Ave,224,1019,41.93170774,-87.736926913
Public Rack - Kostner Ave & Lake St,2,851,41.885942666666665,-87.73541133333333
Public Rack - Kostner Ave & North Ave,5,519,41.90857166666667,-87.736242
Public Rack - Kostner Ave & Wrightwood Ave,27,1018,41.927948475,-87.735921264
Public Rack - Lafayette Ave & 119th St,1,589,41.677976,-87.62351216666667
Public Rack - Lafayette Ave & 87th St - NW,10,710,41.736364245,-87.626751781
Public Rack - Lafayette Ave & 87th St SW,1,711,41.736096833333335,-87.62639583333333
Public Rack - Lafayette Ave & 95th St,150,621,41.721986771,-87.624792099
Public Rack - Laflin St & 51st St,9,915,41.801459908,-87.661620617
Public Rack - Laflin St & 79th St,1,886,41.750303745,-87.661957145
Public Rack - Laflin St &51st ST,16,1042,41.80129016666667,-87.66222783333333
Public Rack - Lake Park Ave & 44th St,2,787,41.8146055,-87.5980335
Public Rack - Lake Park Ave & 47th St,7,812,41.810013175,-87.592097163
Public Rack - Lake Shore Dr & Hayes Dr,4,952,41.780854225,-87.574553132
Public Rack - Lamon Ave & Archer Ave,17,780,41.798428178,-87.744829655
Public Rack - Lamon Ave & Erie St,1,969,41.892190166666666,-87.74686416666667
Public Rack - Langley Ave & 105th Pl,10,610,41.702318192,-87.606445313
Public Rack - Langley Ave & 49th St,249,1012,41.804909229,-87.609118581
Public Rack - Langley Ave & 79th St,14,661,41.751159668,-87.607548714
Public Rack - Langley Ave & Oakwood Blvd,35,957,41.822865367,-87.60958457
Public Rack - Laporte Ave & Armitage Ave,6,966,41.917060733,-87.749866247
Public Rack - Laramie Ave & Belmont Ave,52,544,41.938672333333336,-87.755702
Public Rack - Laramie Ave & Fullerton Ave,22,549,41.923996806,-87.756803751
Public Rack - Laramie Ave & Grand Ave,49,550,41.917259574,-87.756085634
Public Rack - Laramie Ave & Warwick Ave,16,541,41.948786497,-87.75712657
Public Rack - Laramine Ave & Winnemac Ave,86,1126.0,41.971791333333336,-87.75754233333333
Public Rack - Lavergne & Lawrence,97,1203.0,41.96786683333333,-87.75247983333334
Public Rack - Lavergne Ave & Belle Plaine Ave,11,1111.0,41.9552745,-87.75179116666666
Public Rack - Lawndale & 63rd St,1,1030,41.7779235,-87.71381966666667
Public Rack - Lawndale Ave & 23rd St,85,1070,41.849825978,-87.716585875
Public Rack - Lawndale Ave & 63rd St,3,953,41.77874116666667,-87.71414416666667
Public Rack - Lawndale Ave & Diversey Ave,240,506,41.9319695,-87.71947866666666
Public Rack - Lawndale Ave & Polk St,2,522,41.870826721,-87.718302369
Public Rack - Lawrence Ave & Kimball Ave,35,1132.0,41.96841228,-87.712529302
Public Rack - Leader & Caldwell,20,1209.0,41.99146916666667,-87.7543685
Public Rack - Leamington & Elston,35,1204.0,41.97789216666666,-87.75632866666666
Public Rack - Leclaire Ave & Division St,2,968,41.9023005,-87.75305366666667
Public Rack - Leland Ave & Melvina Ave,4,1099.0,41.965824008,-87.782218337
Public Rack - Lemont Ave & Keating Ave,20,1149.0,41.99127416666666,-87.74693366666666
Public Rack - Leoti Ave & Central Ave (south),4,1167.0,41.998421192,-87.763502359
Public Rack - Linder & 51st,5,1234.0,41.799931666666666,-87.76002866666667
Public Rack - Linder & Elston,6,1206.0,41.98358733333333,-87.7657495
Public Rack - Linder Ave & 64th Pl,10,1084.0,41.775448,-87.7580485
Public Rack - Linder Ave & Archer Ave,12,782,41.795971394,-87.759961605
Public Rack - Linder Ave & Belmont Ave,9,545,41.938677166666665,-87.76361783333333
Public Rack - Lockwood & Archer,59,1235.0,41.79668266666667,-87.755137
Public Rack - Lockwood Ave & Diversey Ave,31,964,41.93145752,-87.759043217
Public Rack - Longwood Dr & 111th St,1,899,41.69190733333333,-87.67168916666667
Public Rack - Longwood Dr & 95th St,4,697,41.721009493,-87.669500232
Public Rack - Loomis Blvd & 47th St,3,1043,41.808772166666664,-87.6603475
Public Rack - Loomis Blvd & 83rd St,1,653,41.743208051,-87.658871055
Public Rack - Loomis St & 87th St,2,641,41.735625267,-87.657875896
Public Rack - Lorel Ave & Chicago Ave,1,553,41.89496088,-87.759886503
Public Rack - Lorel Ave & Grand Ave,11,935,41.917624474,-87.759276986
Public Rack - Lotus Ave & Lawrence Ave,31,1124.0,41.96766266666667,-87.76362933333333
Public Rack - Lowe Ave & 94th St,2,708,41.724411845,-87.639570117
Public Rack - Lowe Park,6,817,41.799471378,-87.641565681
Public Rack - Lowell Ave & Elston Ave,143,497,41.9660785,-87.73688266666667
Public Rack - Lynch & Elston,27,1205.0,41.981007576,-87.761391401
Public Rack - Mackinaw Ave & 106th St,3,614,41.702656833333336,-87.54269333333333
Public Rack - Mackinaw Ave & 108th St,3,611,41.698884368,-87.543011904
Public Rack - Mackinaw Ave & 85th St,19,717,41.7420615,-87.54309633333334
Public Rack - Mango & Higgins,21,1202.0,41.971598387,-87.772439957
Public Rack - Maplewood Ave & 47th St,20,1047,41.80846366666667,-87.68867566666667
Public Rack - Maplewood Ave & 63rd St,12,1029,41.779072285,-87.686562896
Public Rack - Marquette Ave & 79th St,2,668,41.7513515,-87.55881633333334
Public Rack - Marquette Ave & 83rd St,15,891,41.74460033333333,-87.558584
Public Rack - Marquette Rd & 67th St,4,998,41.773337841,-87.613163948
Public Rack - Marshfield Ave & 45th St,10,840,41.81238533333333,-87.66632316666667
Public Rack - Marshfield Ave & 87th St,18,703,41.735696673,-87.663925767
Public Rack - Martin Luther King Dr & 44th St,69,914,41.814258337,-87.616396785
Public Rack - Martin Luther King Dr & 69th St,1,746,41.769214988,-87.615331173
Public Rack - Mason & Archer,1,1237.0,41.794603944,-87.770920873
Public Rack - Mason Ave & Archer Ave,3,1094.0,41.79424516666667,-87.77150133333333
Public Rack - Mason Ave & Milwaukee Ave,1,1143.0,41.9857305,-87.77722466666667
Public Rack - Mason Ave & Roosevelt Rd,3,791,41.86550883333334,-87.77246433333333
Public Rack - May St & 63rd St,3,743,41.779689166666664,-87.653135
Public Rack - May St & 78th St,2,723,41.752415166666665,-87.65313316666666
Public Rack - McCormick Blvd & Devon Ave,11,488,41.9962025,-87.711896
Public Rack - McVicker & 52nd,3,1233.0,41.798017859,-87.773080111
Public Rack - McVicker Ave & Grand Ave,1,570,41.92124733333333,-87.77670466666666
Public Rack - Meade Ave & Archer Ave,16,1097.0,41.794039845,-87.774035931
Public Rack - Melvina & Foster,28,1200.0,41.97558883333333,-87.7833625
Public Rack - Melvina Ave & Belmont Ave,21,561,41.938438166666664,-87.78123966666666
Public Rack - Melvina Ave & Montrose Ave,27,1100.0,41.958821416,-87.782005191
Public Rack - Menard Ave & Agusta Blvd,3,798,41.898272753,-87.770496011
Public Rack - Menard Ave & Belmont Ave,50,562,41.938453555,-87.770795822
Public Rack - Menard Ave & Dakin St - midblock,64,559,41.951798333333336,-87.77196
Public Rack - Menard Ave & Grand Ave,28,569,41.919762373,-87.770885825
Public Rack - Menard Ave & Leland Ave,2,1101.0,41.965214252,-87.772575498
Public Rack - Menard Ave & Madison St,1,795,41.880022407,-87.770124912
Public Rack - Miami Ave & Milwaukee Ave,1,1144.0,41.991425753,-87.782070756
Public Rack - Michele Clark Magnet High School,6,558,41.872912407,-87.753725648
Public Rack - Michigan Ave & 107th St,3,938,41.699497223,-87.621018529
Public Rack - Michigan Ave & 110th St,2,607,41.69429733333333,-87.62080266666666
Public Rack - Michigan Ave & 119th St,2,927,41.677989333333336,-87.620618
Public Rack - Michigan Ave & 67th St,2,997,41.772036166666666,-87.621645
Public Rack - Michigan Ave & 96th St,25,629,41.71871516666667,-87.62082666666667
Public Rack - Midway Orange Line,247,777,41.785876274,-87.738225222
Public Rack - Milwaukee Ave & Addison St,52,502,41.946409941,-87.735996604
Public Rack - Milwaukee Ave & Catalpa Ave,103,1120.0,41.97735858,-87.76911366
Public Rack - Milwaukee Ave & Culyer Ave,83,1110.0,41.95451283333333,-87.74961066666667
Public Rack - Milwaukee Ave & Diversey Ave,205,504,41.931453,-87.71141616666667
Public Rack - Milwaukee Ave & Haussen Ct,297,505,41.937606215,-87.72168231
Public Rack - Milwaukee Ave & Higgins Ave,253,1121.0,41.9685835,-87.76125033333334
Public Rack - Milwaukee Ave & Kennedy Expy,95,1125.0,41.971250653,-87.763962865
Public Rack - Milwaukee Ave & Lawrence Ave,38,1123.0,41.967463255,-87.760257721
Public Rack - Milwaukee Ave & Leland Ave,29,1115.0,41.966106057,-87.75934422
Public Rack - Milwaukee Ave & Pensacola Ave,33,1112.0,41.95949566666667,-87.753402
Public Rack - Milwaukee Ave & School St,106,501,41.940482833333334,-87.7260215
Public Rack - Milwaukee Ave & Sunnyside Ave,20,1109.0,41.9625225,-87.75601166666667
Public Rack - Milwaukee Ave & Warner Ave,13,1107.0,41.956316948,-87.750833869
Public Rack - Milwaukee Ave & Waveland Ave,11,862,41.94771733333333,-87.73808816666667
Public Rack - Minnehaha Ave & Devon Ave,7,1166.0,41.997463465,-87.76197648
Public Rack - Minuteman Park,26,1090.0,41.785416365,-87.762698174
Public Rack - Mobile Ave & Archer Ave,38,1095.0,41.79289933333333,-87.7802475
Public Rack - Mont Clare Ave & Higgins Ave,12,1118.0,41.980609655,-87.805023789
Public Rack - Monticello & Lawrence,27,1227.0,41.968142748,-87.719447732
Public Rack - Monticello Ave & Belmont Ave,239,500,41.939330697,-87.71859324
Public Rack - Montrose Ave & Lavergne Ave,10,1114.0,41.960573,-87.75170733333333
Public Rack - Morgan St & 87th St,3,640,41.736056089,-87.648229599
Public Rack - Morgan St & 95th St,4,617,41.721284509,-87.647456288
Public Rack - Mozart Elementary School,14,509,41.921273232,-87.721904755
Public Rack - Mt Greenwood Library - South,4,687,41.692679048,-87.701016903
Public Rack - Mulligan & Northwest Hwy,3,1196.0,41.985490441,-87.786696196
Public Rack - Mulligan Ave & 56th St,23,1091.0,41.79050231,-87.779995799
Public Rack - N Narragansett Ave & Grand Ave,29,801,41.92238316666667,-87.78486566666666
Public Rack - N Sayre Ave & W Belden Ave,2,802,41.921158552,-87.800713897
Public Rack - N. Oakview and W. Gregory St,44,1180.0,41.980130076,-87.844053268
Public Rack - Nagel & Higgins,54,1199.0,41.97634166666667,-87.78764783333334
Public Rack - Nagle Ave & Belmont Ave,141,810,41.93837583333333,-87.78750166666667
Public Rack - Narragansett Ave & Fullerton Ave,21,566,41.923830032,-87.784496665
Public Rack - Nashotah & Northwest Hwy,82,1195.0,41.988127708,-87.791282892
Public Rack - Natoma Ave & 61st St,14,1088.0,41.78059183333333,-87.78757433333334
Public Rack - Natoma Ave & Bryn Mawr Ave,67,1140.0,41.982953429,-87.790857911
Public Rack - Neenah & Archer,8,1231.0,41.792106,-87.785403
Public Rack - Neenah & Dakin,1,1190.0,41.951694131,-87.790693521
Public Rack - Neva & Foster,21,1189.0,41.974841475,-87.805969954
Public Rack - Neva Ave & Grand Ave,42,805,41.923868656,-87.804369211
Public Rack - Newcastle & Archer,11,1230.0,41.7922858,-87.792867661
Public Rack - Newcastle Ave & Belden Ave,5,799,41.9207485,-87.797344
Public Rack - Newcastle Ave & Belmont Ave,3,809,41.937900543,-87.796028733
Public Rack - Newcastle Ave & Wellington Ave,4,804,41.934819102,-87.795763969
Public Rack - Newland Ave & Diversey Ave,7,803,41.930795074,-87.799417973
Public Rack - Nordica & Archer,46,1229.0,41.792285919,-87.797666311
Public Rack - Nordica Ave & Addison St,2,811,41.945464492,-87.803443193
Public Rack - Nordica Ave & Higgins Ave,2,1117.0,41.979961833333334,-87.80193783333333
Public Rack - Normal Ave & 111th St,30,972,41.692404,-87.63556966666667
Public Rack - Normal Ave & 72nd St,8,727,41.763446212,-87.637179136
Public Rack - Normal Blvd & 61st Pl,6,908,41.782102585,-87.637436509
Public Rack - Normandy Ave & Archer Ave,11,1089.0,41.792320609,-87.788851857
Public Rack - Northwest Hwy & Bryn Mawr,16,1197.0,41.982984304,-87.782767415
Public Rack - Northwest Hwy & Neva Ave,7,1157.0,41.995857596,-87.805123091
Public Rack - Northwest Hwy & Overhill Ave,1,1156.0,42.011640166666666,-87.81261066666667
Public Rack - Northwest Hwy & Raven St,2,1139.0,41.992779,-87.7996775
Public Rack - Norwood Park,13,1194.0,41.986534666666664,-87.79393416666667
Public Rack - Norwood Park Station ,34,1275.0,41.992203116,-87.799197912
Public Rack - Oak Park & Higgins,5,1198.0,41.978904247,-87.79625845
Public Rack - Octavia Ave & Touhy Ave,3,1173.0,42.011815786,-87.808445692
Public Rack - Odell & Talcott,9,1187.0,41.987287521,-87.810119033
Public Rack - Oglesby Ave & 105th St,1,849,41.704675794,-87.565681338
Public Rack - Oglesby Ave & 95th St,1,634,41.722211003,-87.565788984
Public Rack - Oketo & Northwest Hwy,4,1179.0,42.000347018,-87.812449098
Public Rack - Oketo & Talcott,3,1186.0,41.988597166666665,-87.81253966666667
Public Rack - Oketo Ave & Belmont Ave,42,579,41.938028812,-87.811914086
Public Rack - Oleander Ave & Addison St,1,578,41.94503266666667,-87.81552833333333
Public Rack - Olmstead Ave & Oliphant Ave,86,1155.0,42.002396,-87.81706566666666
Public Rack - Osceola Ave & Touhy Ave,4,1174.0,42.011975646,-87.812633157
Public Rack - Ottowa Ave & Touhy Ave,6,1170.0,42.011506,-87.8182255
Public Rack - Overhill Ave & Touhy Ave,14,1171.0,42.011618257,-87.818724036
Public Rack - Ozanam Ave & Devon Ave,5,1154.0,41.996911764,-87.820985556
Public Rack - Ozark Ave & Addison St,6,577,41.94515783333333,-87.82025666666667
Public Rack - Ozman & Talcott,4,1184.0,41.99300683333333,-87.8216185
Public Rack - Panama Ave & Forest Preserve Ave,2,573,41.943159223,-87.82887876
Public Rack - Parkside & 63rd,12,1240.0,41.778219166666666,-87.76287466666666
Public Rack - Parkside & Archer,51,1236.0,41.795654774,-87.763586283
Public Rack - Parkside & Elston,10,1207.0,41.985674833333334,-87.76982416666667
Public Rack - Parnell Ave & 98th St,3,624,41.716085672,-87.637299657
Public Rack - Paul Revere Elementary School,3,731,41.764466882,-87.600485802
Public Rack - Paxton Ave & 79th St,4,943,41.751717806,-87.570701122
Public Rack - Penn Elementary School / KIPP Ascend Middle School,45,531,41.858659625,-87.722351432
Public Rack - Peoria St & 60th St,7,769,41.785039783,-87.647391438
Public Rack - Perry Ave & 108th Pl,2,606,41.697058439,-87.625751853
Public Rack - Perry Ave & 111th St,7,975,41.692743666666665,-87.62665316666667
Public Rack - Peterson Ave & Bernard Ave,8,1016,41.99022883333333,-87.71563766666667
Public Rack - Peterson Ave & Drake Ave,5,1015,41.990219235,-87.717199087
Public Rack - Peterson Ave & Milwaukee Ave,13,1145.0,41.989807248,-87.780987024
Public Rack - Peterson Park,19,1277.0,41.978686571,-87.755588412
Public Rack - Piotrowski Park,4,838,41.83666916666667,-87.73082
Public Rack - Pittsburgh Ave & Irving Park,4,575,41.952051044,-87.832813382
Public Rack - Prairie Ave & 47th St ,25,814,41.8094125,-87.61912533333333
Public Rack - Prairie Ave & 78th St,4,994,41.752143502,-87.618186355
Public Rack - Prairie Ave & 85th St,3,660,41.740252972,-87.617748857
Public Rack - Prairie Ave & Garfield Blvd N,27,954,41.794839263,-87.618856907
Public Rack - Prairie Ave & Garfield Blvd S,108,906,41.7941815,-87.619343
Public Rack - Pratt Ave & Odell Ave,7,1152.0,42.004371643,-87.810989499
Public Rack - Princeton Ave & 43rd St,4,785,41.815979,-87.63362183333334
Public Rack - Princeton Ave & 99th Pl,1,622,41.713513,-87.6309755
Public Rack - Pulaski & 52nd,7,830,41.797024131,-87.723425388
Public Rack - Pulaski & 74th,2,1255.0,41.757296833333335,-87.72231916666667
Public Rack - Pulaski & 84th,1,1260.0,41.739416,-87.7213535
Public Rack - Pulaski & Ardmore,5,1221.0,41.9856885,-87.72841733333334
Public Rack - Pulaski & Rosemont,67,1214.0,41.995221019,-87.728960991
Public Rack - Pulaski Rd & 15th St,2,528,41.860118628,-87.725077271
Public Rack - Pulaski Rd & 40th St,1,834,41.818773627,-87.724326968
Public Rack - Pulaski Rd & 41st,3,835,41.817879166666664,-87.7241355
Public Rack - Pulaski Rd & 44th St,68,833,41.812686682,-87.722426534
Public Rack - Pulaski Rd & 51st Rd,10,829,41.800363898,-87.723868966
Public Rack - Pulaski Rd & 5th Ave,1,960,41.873170853,-87.724958181
Public Rack - Pulaski Rd & 65th St,10,1033,41.773444414,-87.722876668
Public Rack - Pulaski Rd & 83rd St,6,1074.0,41.741561532,-87.721485376
Public Rack - Pulaski Rd & 85th St,2,1073.0,41.738032818,-87.721632481
Public Rack - Pulaski Rd & Armitage Ave,292,517,41.917125821,-87.72708106
Public Rack - Pulaski Rd & Flournoy St,1,1021,41.872493148,-87.724954009
Public Rack - Pulaski Rd & Fullerton Ave,46,508,41.924513698,-87.727815986
Public Rack - Pulaski Rd & Grenshaw St,1,1067,41.867038965,-87.725434542
Public Rack - Pulaski Rd & Lake St,11,1013,41.885427237,-87.725667596
Public Rack - Pulaski Rd & Roosevelt Rd,3,523,41.866265416,-87.724873781
Public Rack - Pulaski Rd & Stevens Ave,18,1148.0,41.99106166666667,-87.72948783333334
Public Rack - Pullman - Planet Fitness,3,921,41.69757688,-87.597986341
Public Rack - Pullman Community Center,2,918,41.7041455,-87.5933585
Public Rack - Racine Ave & 109th Pl,325,877,41.694857359,-87.65275228
Public Rack - Racine Ave & 74th St,14,722,41.75940166666667,-87.653926
Public Rack - Racine Ave & 76th,1,720,41.755859137,-87.654006004
Public Rack - Racine Ave & 83rd St,5,654,41.743328691,-87.653951883
Public Rack - Rhodes Ave & 79th St,1,659,41.750923395,-87.611402988
Public Rack - Richard Daley College,21,1279.0,41.75484466666666,-87.72363683333333
Public Rack - Richmond St & Thorndale Ave,1,1014,41.988940001,-87.702907681
Public Rack - Robert Fulton Elementary School,9,819,41.797635198,-87.668582082
Public Rack - Rockwell & 111th St,3,677,41.691465735,-87.685476184
Public Rack - Rockwell & Division,227,1052,41.903005666666665,-87.692359
Public Rack - Rockwell Ave & 71st St,3,1081.0,41.76465566666667,-87.68878316666667
Public Rack - Rockwell Ave & Touhy Ave ,75,480,42.0122145,-87.69532166666667
Public Rack - Roscoe St & Osceola Ave,2,970,41.942148328,-87.813124299
Public Rack - Rutherford & 53rd,3,1232.0,41.795031333333334,-87.79055866666667
Public Rack - Rutherford Ave & Belmont Ave,6,808,41.938298225,-87.793959856
Public Rack - S Menard & W 63rd,20,1239.0,41.777060986,-87.766715288
Public Rack - S. Kilpatrick and W. 79th,13,1257.0,41.749287128,-87.739676952
Public Rack - S. New England/ W. 65th,30,1228.0,41.773889,-87.79351766666667
Public Rack - Sacramento & 71st,2,1248.0,41.764450788,-87.697747231
Public Rack - Sacramento Ave & Devon Ave,51,485,41.997555,-87.70448316666666
Public Rack - Sacramento Blvd & Washington Blvd,3,854,41.883009672,-87.699862599
Public Rack - Saginaw Ave & 93rd St,4,942,41.726294,-87.559314
Public Rack - Sangamon St & 79th St,1,655,41.750314713,-87.647624612
Public Rack - Sangamon St & 87th St,1,1025,41.736034393,-87.646813393
Public Rack - Sawyer Ave & Bryn Mawr Ave - SE,15,857,41.98309666666667,-87.7099975
Public Rack - Sawyer Ave & Bryn Mawr Ave - SW,10,856,41.98301683333333,-87.71057816666666
Public Rack - Sawyer Ave & Chicago Ave,28,1056,41.895470023,-87.708166003
Public Rack - Sawyer Ave & Lawrence Ave,63,861,41.96834445,-87.709751248
Public Rack - Sayer & Northwest Hwy,20,1177.0,41.9945755,-87.80267883333333
Public Rack - Sayre Ave & 59th St,16,1087.0,41.784704804,-87.795796871
"Public Rack - Senka ""Edward Duke"" Park",2,773,41.79033666666667,-87.71094033333333
Public Rack - South Shore Dr & 71st St,11,948,41.76614,-87.56281433333334
Public Rack - South Shore High School,3,734,41.75619416666667,-87.57971633333334
Public Rack - Spaulding Ave & 71st St,4,1080.0,41.76442983333333,-87.7063185
Public Rack - Spaulding Ave & Bryn Mawr Ave,12,489,41.9830535,-87.711125
Public Rack - Spaulding Ave & Evergreen Ave,219,513,41.90549083333333,-87.70941083333334
Public Rack - Spaulding Ave & Foster Ave,9,859,41.97575295,-87.710656166
Public Rack - Spaulding Ave & North Ave,137,510,41.910267353,-87.70944488
Public Rack - Springfield & 71st,6,1254.0,41.764217734,-87.720451593
Public Rack - Springfield & 79th,12,1256.0,41.749666452,-87.720799804
Public Rack - Springfield Ave & 63rd St,2,759,41.778634833333335,-87.71877816666667
Public Rack - Springfield Ave & Lawrence Ave,52,1131.0,41.968220333333335,-87.72565666666667
Public Rack - St Louis & Columbus,4,1262.0,41.745280666666666,-87.709138
Public Rack - St Louis & Lincoln,20,1216.0,41.995594978,-87.716405153
Public Rack - St Louis Ave & Berteau Ave,47,493,41.9585005,-87.71541233333333
Public Rack - State ST & 42nd St,24,958,41.819285274,-87.626640439
Public Rack - State St & 47th st,9,816,41.809277654,-87.626983523
Public Rack - Stewart Ave & 123rd St,68,586,41.670348048,-87.63224709
Public Rack - Stony Is Ave & 73rd St,3,735,41.762369871,-87.585415363
Public Rack - Strohacker Park,5,827,41.794783235,-87.731913686
Public Rack - Talman Ave & 51st St,5,822,41.800940514,-87.690990448
Public Rack - Talman Ave & Pershing Rd,29,1040,41.822591305,-87.690564394
Public Rack - The Montessori School of Englewood,8,741,41.767728329,-87.667719245
Public Rack - Throop St & 109th Pl,21,876,41.694723725,-87.654095888
Public Rack - Throop St & 58th St,155,770,41.788619833333335,-87.65635216666666
Public Rack - Torrence Ave  & 106th St,2,923,41.702828526,-87.560039043
Public Rack - Torrence Ave & 103rd St,1,924,41.708402,-87.559827
Public Rack - Touhy Ave & Oconto Ave,13,1172.0,42.011771917,-87.807603359
Public Rack - Tripp Ave & North Ave,28,1057,41.909921169,-87.732940435
Public Rack - Troy & 111th St,1,896,41.691497207,-87.700356364
Public Rack - Troy & 71st,8,1252.0,41.764318833333334,-87.70209216666666
Public Rack - Tuley (Murray) Park,4,645,41.730151653,-87.611583114
Public Rack - Vincennes Ave & 87th St,1,643,41.735671401,-87.645331621
Public Rack - Vincennes Ave & 95th Pl,6,618,41.7204345,-87.65109283333334
Public Rack - Vincennes Ave & 95th St,8,619,41.72115983333333,-87.65047766666666
Public Rack - Vincennes Ave & 99th St,3,616,41.71303916,-87.653766632
Public Rack - W. Talcott & N. Oriole,4,1185.0,41.990642667,-87.816987634
Public Rack - Wabash Ave & 87th St,4,644,41.736188531,-87.623176217
Public Rack - Walden Pkwy & 103rd St,124,693,41.706129313,-87.668962717
Public Rack - Walden Pkwy & 99th St,4,904,41.713917255,-87.667434692
Public Rack - Washington Park Ct & 51st St,129,1072,41.802196622,-87.615157008
Public Rack - Washtenaw Ave & 63rd St,3,758,41.779238939,-87.691123724
Public Rack - Washtenaw Ave & Devon Ave,179,930,41.997713,-87.6972905
Public Rack - Washtenaw Ave & Superior St,501,855,41.8947765,-87.6950285
Public Rack - Wentworth Ave & 103rd St,4,604,41.70721662,-87.627722621
Public Rack - Wentworth Ave & 79th St,1,657,41.750744224,-87.630161166
Public Rack - Wentworth Park,11,1278.0,41.7888015,-87.7796245
Public Rack - West Chatham Park,4,656,41.745587349,-87.631673336
Public Rack - Western & 74th,2,1244.0,41.75947633333333,-87.68295366666666
Public Rack - Western & 79th,22,1269.0,41.75089466666667,-87.6826635
Public Rack - Western & 83rd,44,1271.0,41.743556023,-87.682813287
Public Rack - Western Ave & 100th St,31,695,41.711739659,-87.68195951
Public Rack - Western Ave & 104th St - East,15,692,41.704417166666666,-87.681638
Public Rack - Western Ave & 104th St - West,7,688,41.703850333333335,-87.68162716666667
Public Rack - Western Ave & 105th St,8,691,41.702290535,-87.681615829
Public Rack - Western Ave & 106th St - East,4,690,41.70042433333333,-87.68129816666666
Public Rack - Western Ave & 106th St - West,2,903,41.701467991,-87.681522608
Public Rack - Western Ave & 107th Pl,4,990,41.697958589,-87.681220412
Public Rack - Western Ave & 107th St,4,987,41.698469333333335,-87.681539
Public Rack - Western Ave & 110th St,30,988,41.6945115,-87.6814435
Public Rack - Western Ave & 111th St - NW,2,681,41.691674666666664,-87.68183066666667
Public Rack - Western Ave & 111th St - SE,3,898,41.691408396,-87.681028724
Public Rack - Western Ave & 111th St - SW,10,679,41.691700459,-87.681747317
Public Rack - Western Ave & 118th St,4,900,41.67868948,-87.680940747
Public Rack - Western Ave & 47th Pl,19,1048,41.808244,-87.684803
Public Rack - Western Ave & 79th St,3,714,41.749829,-87.683092
Public Rack - Western Ave & 92nd Pl,21,702,41.72537148,-87.682006955
Public Rack - Western Ave & 96th St,77,991,41.718648791,-87.681688428
Public Rack - Western Ave & 98th St,3,992,41.71530807,-87.681742191
Public Rack - Western Ave & Devon Ave,138,931,41.99740684,-87.689774632
Public Rack - Western Ave & Jarvis Ave,23,483,42.016468048,-87.690277219
Public Rack - Western Blvd & 49th St,112,821,41.805113,-87.6838865
Public Rack - Western Blvd & 53rd St,2,820,41.79694033333333,-87.68339616666667
Public Rack - Whipple St & 63rd St,12,1028,41.77893579,-87.700033188
Public Rack - Wilbur Wright College North,3,1281.0,41.959067941,-87.789713621
Public Rack - Wilbur Wright College South,164,1280.0,41.958420833333335,-87.787483
Public Rack - William J Onahan Public School,3,1136.0,41.993768,-87.79233933333333
Public Rack - Winchester Ave & 87th St,1,706,41.735785166666666,-87.67212366666666
Public Rack - Winona St & Elston Ave,21,1122.0,41.974386215,-87.750427604
Public Rack - Wolcott Ave & 56th St,1,910,41.791247606,-87.671985388
Public Rack - Wolcott Ave & 61st St,20,909,41.782243,-87.671676
Public Rack - Wood St & 103rd St,16,694,41.706650019,-87.667304635
Public Rack - Wood St & 47th St,17,916,41.808804631,-87.669948816
Public Rack - Woodlawn Ave & 63rd St N,396,951,41.780709147,-87.59611702
Public Rack - Woodlawn Ave & 63rd St S,21,950,41.779762983,-87.596048474
Public Rack - Wrightwood Metra Station,1,1282.0,41.748886166666665,-87.703701
Public Rack - Yates Ave & 100th St,3,631,41.713463833333336,-87.5644205
Public Rack - Yates Blvd & Exchange Ave,4,905,41.7653687,-87.565683246
Public Rack - Zapata Academy,1,535,41.8417485,-87.73436266666667
Pulaski & Ann Lurie Pl,152,340,41.816435166666665,-87.72483433333333
Pulaski Rd & 21st St,146,331.0,41.853444,-87.7245565
Pulaski Rd & 51st St,561,21343,41.800434,-87.7247496
Pulaski Rd & 60th St,98,404,41.78416933333333,-87.72258033333334
Pulaski Rd & 68th St,6,24145,41.76949,-87.72292
Pulaski Rd & 84th St,16,23115,41.740407,-87.721907
Pulaski Rd & Congress Pkwy,84,535,41.87441021003816,-87.72609159350395
Pulaski Rd & Eddy St,516,KA1504000141,41.946264,-87.731023
Pulaski Rd & Lake St,131,528,41.885409,-87.726491
Racine Ave & 13th St,1111,13165,41.865054,-87.656959
Racine Ave & 15th St,2607,13304,41.861267,-87.656625
Racine Ave & 18th St,5156,13164,41.858166,-87.656495
Racine Ave & 35th St,1663,15446,41.83068856472101,-87.65621066093445
Racine Ave & 57th St,21,647,41.789474368,-87.654710531
Racine Ave & 61st St,47,562,41.783189,-87.654372
Racine Ave & 65th St,24,564,41.775393,-87.654308
Racine Ave & Belmont Ave,11533,TA1308000019,41.939743,-87.658865
Racine Ave & Congress Pkwy,7537,TA1306000025,41.87464,-87.65703
Racine Ave & Fullerton Ave,13325,TA1306000026,41.925514,-87.658399
Racine Ave & Garfield Blvd,129,559,41.794267535,-87.655071139
Racine Ave & Randolph St,4284,13155,41.884069,-87.656853
Racine Ave & Washington Blvd,4665,654,41.883073,-87.656952
Racine Ave & Wrightwood Ave,6946,TA1309000059,41.928887,-87.658971
Rainbow - Beach,57,KA1503000049.1,41.75787144829,-87.54938625
Rainbow Beach,110,KA1503000049,41.757871,-87.549386
Ravenswood Ave & Berteau Ave,3775,TA1309000018,41.957921,-87.673567
Ravenswood Ave & Irving Park Rd,5250,TA1307000149,41.95469,-87.67393
Ravenswood Ave & Lawrence Ave,16685,TA1309000066,41.968445,-87.674226
Rhodes Ave & 32nd St,8052,13215,41.836208,-87.613533
Rhodes Ave & 71st St,32,652,41.766,-87.611726
Richmond St & 59th St,98,388,41.78665383333333,-87.697252
Richmond St & Diversey Ave,2803,15645,41.93190196886,-87.7011951301
Richmond St & Lincoln Ave,244,452,41.988306761,-87.703037858
Ridge Blvd & Howard St,767,514,42.019276,-87.68452
Ridge Blvd & Touhy Ave,763,RP-006,42.01213227742,-87.6829126443
Ritchie Ct & Banks St,9548,KA1504000134,41.906866,-87.626217
Rockwell St & 57th St,84,386,41.790417433,-87.688942432
Rockwell St & 63rd St,45,391,41.778818846,-87.688551545
Rockwell St & Archer Ave,79,379,41.823359333333336,-87.6897405
Rockwell St & Cermak Rd,557,425,41.85172516666667,-87.69058866666667
Rockwell St & Eastwood Ave,2941,KA1504000093,41.96590013976,-87.6936384935
Rockwell St & Fletcher St,1736,435,41.9387675,-87.69300416666667
Roscoe & Harlem,95,319,41.94158183333333,-87.80721066666666
Rush St & Cedar St,13437,KA1504000133,41.90230870122,-87.627690528
Rush St & Hubbard St,9204,KA1503000044,41.890173,-87.626185
Rush St & Superior St,12938,15530,41.89576474564,-87.6259080327
S Aberdeen St & W 106th St,39,20126,41.701289,-87.649351
S Michigan Ave & E 118th St,22,20209,41.679822564,-87.620773673
S Wentworth Ave & W 111th St,22,20128,41.692579985,-87.628245711
Sacramento Ave & 25th St,133,424,41.8465995,-87.70016816666667
Sacramento Ave & Lunt Ave,55,24149,42.00820446,-87.704597235
Sacramento Ave & Pershing Rd,67,339,41.82230533333333,-87.69963983333334
Sacramento Ave & Pratt Blvd,42,24147,42.004052877,-87.704791188
Sacramento Blvd & Addison St,745,432,41.9460785,-87.702978
Sacramento Blvd & Franklin Blvd,393,KA1504000113,41.89046879243862,-87.70260751247406
Sacramento Blvd & Fulton Ave,190,414,41.88661033333333,-87.70171
Sacramento Blvd & Polk St,41,419,41.870882869,-87.700281858
Sangamon St & Lake St,9894,TA1306000015,41.88577925240433,-87.65102460980414
Sangamon St & Washington Blvd,6531,13409,41.883165,-87.6511
Sawyer Ave & Irving Park Rd,1255,KA1504000096,41.95358617895,-87.7093107999
Sayre & Diversey,195,352,41.9309825,-87.80098533333333
Sayre Ave & Diversey Ave,18,21352,41.93098,-87.80106
Scottsdale Park,29,23113,41.741966,-87.736179
Sedgwick St & Huron St,13831,TA1307000062,41.894666,-87.638437
Sedgwick St & North Ave,12604,TA1307000038,41.911386,-87.638677
Sedgwick St & Schiller St,4474,TA1307000143,41.907626,-87.638566
Sedgwick St & Webster Ave,12676,13191,41.922167,-87.638888
Seeley Ave & Garfield Blvd,61,557,41.7941305,-87.67548766666667
Seeley Ave & Roscoe St,5532,13144,41.943403,-87.679618
Shabbona Park,101,395,41.944743395,-87.799436092
Shedd Aquarium,20668,15544,41.86722595682,-87.6153553902
Sheffield Ave & Fullerton Ave,21947,TA1306000016,41.9256018819,-87.6537080423
Sheffield Ave & Kingsbury St,11961,13154,41.910522,-87.653106
Sheffield Ave & Waveland Ave,17368,TA1307000126,41.949399,-87.654529
Sheffield Ave & Webster Ave,15009,TA1309000033,41.92154,-87.653818
Sheffield Ave & Wellington Ave,14163,TA1307000052,41.9362534831413,-87.65266209840775
Sheffield Ave & Willow St,8072,TA1306000032,41.913688,-87.652855
Sheffield Ave & Wrightwood Ave,14973,TA1309000023,41.928712,-87.653833
Sheridan Rd & Argyle St,6730,13059,41.973287,-87.65476
Sheridan Rd & Buena Ave,9801,TA1309000027,41.958494,-87.654966
Sheridan Rd & Columbia Ave,2767,660,42.004583,-87.661406
Sheridan Rd & Greenleaf Ave,1821,KA1504000159,42.01058656284,-87.6624120948
Sheridan Rd & Irving Park Rd,16019,13063,41.954245,-87.654406
Sheridan Rd & Lawrence Ave,6038,TA1309000041,41.969517,-87.654691
Sheridan Rd & Loyola Ave,4240,RP-009,42.00104377979,-87.6611982433
Sheridan Rd & Montrose Ave,13292,TA1307000107,41.96167,-87.65464
Sheridan Rd & Noyes St (NU),6349,604,42.058239,-87.677432
Shields Ave & 28th Pl,2469,15443,41.842733,-87.635491
Shields Ave & 31st St,4903,KA1503000038,41.838464,-87.635406
Shields Ave & 43rd St,187,KA1503000001,41.81620767856,-87.6348193497
Shore Dr & 55th St,10113,TA1308000009,41.795212,-87.580715
Smith Park,1895,643,41.892048,-87.689397
South Chicago Ave & 83rd St,30,588,41.743921,-87.575225
South Chicago Ave & Elliot Ave,8,665,41.747363,-87.580046
South Shore Dr & 67th St,1081,KA1503000029,41.773643,-87.567514
South Shore Dr & 71st St,1090,KA1503000002,41.7664094567,-87.5656875719
South Shore Dr & 74th St,318,KA1503000020,41.76218896038,-87.55927465
Southport Ave & Belmont Ave,10617,13229,41.93947775040509,-87.6637476682663
Southport Ave & Clark St,3470,TA1308000047,41.957081,-87.664199
Southport Ave & Clybourn Ave,7387,TA1309000030,41.920771,-87.663712
Southport Ave & Irving Park Rd,7668,TA1309000043,41.954177,-87.664358
Southport Ave & Roscoe St,16072,13071,41.943739,-87.66402
Southport Ave & Waveland Ave,16744,13235,41.94815,-87.66394
Southport Ave & Wellington Ave,11835,TA1307000006,41.93577461766458,-87.66360014677048
Southport Ave & Wrightwood Ave,10069,TA1307000113,41.928773,-87.663913
Spaulding Ave & 16th,4,21366,41.858861804,-87.707979441
Spaulding Ave & 16th St,45,21366,41.858916402,-87.70794332
Spaulding Ave & 63rd,4,21349,41.77910912,-87.705571175
Spaulding Ave & 63rd St,7,349,41.7790519,-87.705382943
Spaulding Ave & Armitage Ave,5315,15650,41.917108034789315,-87.71022096276283
Spaulding Ave & Division St,1594,15654,41.90270659438,-87.709219571
Springfield Ave & 47th St,67,344,41.808051166666665,-87.72121766666666
Springfield Ave & 71st St,54,23137,41.764484,-87.720028
Springfield Ave & 80th St,16,23126,41.74763,-87.71945
Springfield Ave & North Ave,203,23191,41.910176754,-87.723849416
St Louis Ave & 59th St,255,21387,41.78589,-87.71057
St Louis Ave & Foster Ave,139,23112,41.976046833333335,-87.71587683333334
St Louis Ave & Norman Bobbins Ave,156,385,41.794393778,-87.711210132
St Louis Ave & Norman Bobbins Pl,32,21385,41.794416,-87.711239
St. Clair St & Erie St,17303,13016,41.89434513742426,-87.62279838323593
St. Louis & 71st St,36,23138,41.764354,-87.710121
St. Louis Ave & Balmoral Ave,928,KA1504000161,41.98039423475,-87.7161149615
St. Louis Ave & Fullerton Ave,2992,KA1504000090,41.92481559681187,-87.71449506282805
State St & 123rd St,15,20210,41.670689344,-87.622733235
State St & 19th St,2595,SL-013,41.856594,-87.627542
State St & 29th St,944,13213,41.841707,-87.626938
State St & 33rd St,16351,13216,41.834734,-87.625813
State St & 35th St,5692,TA1307000129,41.8310363140161,-87.62679755687714
State St & 54th St,254,646,41.796640515,-87.62590754
State St & 76th St,47,572,41.757063627,-87.624644876
